,stop_id,stop_code,stop_name,stop_desc,stop_lat,stop_lon,zone_id,stop_url,location_type,parent_station,wheelchair_boarding,stop_timezone,platform_code,vehicle_type
0,NSR:StopPlace:3326,,Ånnerudjordet,,59.831790000000005,10.407958,,,1,,2,,,700
1,NSR:StopPlace:4657,,Einerveien,,59.525130000000004,10.706665,,,1,,2,,,700
2,NSR:StopPlace:3325,,Haugerud,,60.11375,11.050983,,,1,,2,,,700
3,NSR:StopPlace:4656,,Tajet,,60.0558,10.868992,,,1,,2,,,700
4,NSR:StopPlace:4659,,Bekkefaret,,59.522686,10.702276,,,1,,2,,,700
5,NSR:StopPlace:3328,,Fredbostubben,,59.74746999999999,10.623297,,,1,,2,,,700
6,NSR:StopPlace:5988,,Østensjø skole,,59.89913000000001,10.832192,,,1,,2,,,700
7,NSR:StopPlace:16067,,Amtmannsvingen,,59.75285699999999,10.260439,,,1,,2,,,700
8,NSR:StopPlace:3327,,Gamle Eltonveg,,60.136906,11.055939,,,1,,2,,,700
9,NSR:StopPlace:4658,,Seterhaugen,,59.99570500000001,10.902992,,,1,,2,,,700
10,NSR:StopPlace:16064,,Frydenlund,,59.751940000000005,10.254952000000001,,,1,,2,,,700
11,NSR:StopPlace:3329,,Gutugropa,,60.13323199999999,11.063214,,,1,,2,,,700
12,NSR:StopPlace:5992,,Aulitoppen,,60.04654,11.376445,,,1,,2,,,700
13,NSR:StopPlace:4660,,Myrlia,,59.99279,10.904747,,,1,,2,,,700
14,NSR:StopPlace:5993,,Bjerkedalen park,,59.94036,10.822085000000001,,,1,,2,,,700
15,NSR:StopPlace:3331,,Grani,,60.124719999999996,11.029908,,,1,,2,,,700
16,NSR:StopPlace:4662,,Helseheimen,,60.17201,11.169186999999999,,,1,,2,,,700
17,NSR:StopPlace:5990,,Refstadsvingen,,59.941727,10.817025,,,1,,2,,,700
18,NSR:StopPlace:5991,,Oppsal kirke,,59.900867000000005,10.841871000000001,,,1,,2,,,700
19,NSR:StopPlace:3330,,Oreholtet,,59.830647,10.417402000000001,,,1,,2,,,700
20,NSR:StopPlace:4661,,Hauger,,59.587254,10.682177000000001,,,1,,2,,,700
21,NSR:StopPlace:5996,,Brobekk,,59.944164,10.817557,,,1,,2,,,700
22,NSR:StopPlace:3333,,Gangfløtt,,60.13026,11.028497999999999,,,1,,2,,,700
23,NSR:StopPlace:4664,,Emmerstad,,59.586952000000004,10.66869,,,1,,2,,,700
24,NSR:StopPlace:5997,,Løypeveien,,59.89561,10.841344,,,1,,2,,,700
25,NSR:StopPlace:4663,,Nittedal stasjon,,60.058353000000004,10.86505,,,1,,2,,,700
26,NSR:StopPlace:5994,,Oppsal,,59.892680000000006,10.840454,,,1,,2,,,401
27,NSR:StopPlace:4666,,Skytta servicesenter,,59.99081999999999,10.906873,,,1,,2,,,700
28,NSR:StopPlace:3335,,Svestad gård,,59.76655600000001,10.636591000000001,,,1,,2,,,700
29,NSR:StopPlace:5995,,Oppsal senter,,59.89315799999999,10.840376,,,1,,2,,,700
30,NSR:StopPlace:4665,,Hernestoppen,,59.589130000000004,10.666167999999999,,,1,,2,,,700
31,NSR:StopPlace:5978,,Kolåsbakken,,59.944405,10.832136,,,1,,2,,,700
32,NSR:StopPlace:3315,,Bjørke gård,,60.235023,11.009346,,,1,,2,,,700
33,NSR:StopPlace:4646,,Velveien,,60.05165,10.865892,,,1,,2,,,700
34,NSR:StopPlace:3314,,Nygård,,59.743007999999996,10.603685,,,1,,2,,,700
35,NSR:StopPlace:5979,,Skøyenåsveien,,59.898888,10.840889,,,1,,2,,,700
36,NSR:StopPlace:16058,,Jensvollveien,,59.750240000000005,10.247394,,,1,,2,,,700
37,NSR:StopPlace:4645,,Fonbekk,,60.141197,11.25258,,,1,,2,,,700
38,NSR:StopPlace:5976,,Øvre Lunden,,59.943176,10.829004,,,1,,2,,,700
39,NSR:StopPlace:3317,,Hagamoen,,60.129996999999996,11.059478,,,1,,2,,,700
40,NSR:StopPlace:4648,,Eventyrveien,,60.055325,10.856819,,,1,,2,,,700
41,NSR:StopPlace:3316,,Vardåsen,,59.813118,10.375264,,,1,,2,,,700
42,NSR:StopPlace:5977,,Kjærnsmo,,60.02457,11.406196000000001,,,1,,2,,,700
43,NSR:StopPlace:4647,,Berg,,59.581738,10.702364,,,1,,2,,,700
44,NSR:StopPlace:3319,,Slemdal,,60.12301,11.058235,,,1,,2,,,700
45,NSR:StopPlace:3318,,Gjøfjell,,59.74548000000001,10.608511,,,1,,2,,,700
46,NSR:StopPlace:4649,,Mogholt,,59.581996999999994,10.700896,,,1,,2,,,700
47,NSR:StopPlace:5981,,Skøyenlia,,59.902035,10.84108,,,1,,2,,,700
48,NSR:StopPlace:5982,,Persveien,,59.92281,10.816365,,,1,,2,,,700
49,NSR:StopPlace:16061,,Lierstranda 111,,59.751045,10.251007000000001,,,1,,2,,,700
50,NSR:StopPlace:3320,,Brendsrudroa,,59.82959,10.399238,,,1,,2,,,700
51,NSR:StopPlace:4651,,Rønjul,,59.585243000000006,10.691562,,,1,,2,,,700
52,NSR:StopPlace:5980,,Haraldrudveien,,59.924473,10.825696,,,1,,2,,,700
53,NSR:StopPlace:4650,,Nesten,,60.130069999999996,11.267182,,,1,,2,,,700
54,NSR:StopPlace:3322,,Låvegghellinga,,60.115294999999996,11.056635,,,1,,2,,,700
55,NSR:StopPlace:4653,,Solliveien,,60.05214300000001,10.874689,,,1,,2,,,700
56,NSR:StopPlace:5985,,Travbanen,,59.942223,10.811658,,,1,,2,,,700
57,NSR:StopPlace:3321,,Myklerud,,59.747402,10.613866,,,1,,2,,,700
58,NSR:StopPlace:5986,,Oppsal skole,,59.89722,10.845464999999999,,,1,,2,,,700
59,NSR:StopPlace:4652,,Nyveien,,60.056828,10.868193,,,1,,2,,,700
60,NSR:StopPlace:5983,,Solhøgda,,59.901455000000006,10.847397,,,1,,2,,,700
61,NSR:StopPlace:4655,,Li,,60.186606999999995,11.173150999999999,,,1,,2,,,700
62,NSR:StopPlace:3324,,Munkerud,,59.748577000000004,10.631402,,,1,,2,,,700
63,NSR:StopPlace:5984,,Huserteiet,,60.01161,11.4,,,1,,2,,,700
64,NSR:StopPlace:3323,,Oppsjøsvingen,,59.817554,10.381426,,,1,,2,,,700
65,NSR:StopPlace:4654,,Deør skog,,59.52741999999999,10.708728,,,1,,2,,,700
66,NSR:StopPlace:3348,,Håkenstad,,60.142883,11.016092,,,1,,2,,,700
67,NSR:StopPlace:4679,,Romerike folkehøgskole,,60.160540000000005,11.172941999999999,,,1,,2,,,700
68,NSR:StopPlace:3347,,Måsankroken,,59.826946,10.401136,,,1,,2,,,700
69,NSR:StopPlace:4678,,Industriveien,,59.991409999999995,10.910822999999999,,,1,,2,,,700
70,NSR:StopPlace:3349,,Ellingstadåsen,,59.803196,10.619431,,,1,,2,,,700
71,NSR:StopPlace:3351,,Måsan,,59.824314,10.394619,,,1,,2,,,700
72,NSR:StopPlace:16050,,Lierstranda,,59.74828,10.241348,,,1,,2,,,700
73,NSR:StopPlace:4681,,Hagan,,59.99804,10.917736999999999,,,1,,2,,,700
74,NSR:StopPlace:3350,,Holter sag,,60.13881,11.016675,,,1,,2,,,700
75,NSR:StopPlace:3353,,Løkendalen,,60.137993,11.041889,,,1,,2,,,700
76,NSR:StopPlace:4684,,Hovimoen,,60.178734,11.17152,,,1,,2,,,700
77,NSR:StopPlace:4683,,Morteveien,,59.988976,10.937983000000001,,,1,,2,,,700
78,NSR:StopPlace:3352,,Agnor veiskille,,59.727633999999995,10.612314999999999,,,1,,2,,,700
79,NSR:StopPlace:4686,,Holumskogen skole,,59.98375,10.9387,,,1,,2,,,700
80,NSR:StopPlace:3355,,Labråtstubben,,59.73061,10.605468,,,1,,2,,,700
81,NSR:StopPlace:4685,,Åmotbråten,,59.548862,10.762491,,,1,,2,,,700
82,NSR:StopPlace:3354,,Trollstua,,59.82235,10.389574,,,1,,2,,,700
83,NSR:StopPlace:4688,,Mortens kro,,59.985462,10.95129,,,1,,2,,,700
84,NSR:StopPlace:3357,,Gulbrandsrud,,60.141090000000005,11.051644999999999,,,1,,2,,,700
85,NSR:StopPlace:4687,,Slettebakke,,59.55903000000001,10.774961,,,1,,2,,,700
86,NSR:StopPlace:3356,,Irisveien,,60.13779,11.04508,,,1,,2,,,700
87,NSR:StopPlace:4668,,Nordbyvegen,,60.158997,11.1934,,,1,,2,,,700
88,NSR:StopPlace:3336,,Eltonåsen,,60.136826,11.022969999999999,,,1,,2,,,700
89,NSR:StopPlace:4667,,Briskeveien,,59.993046,10.913654,,,1,,2,,,700
90,NSR:StopPlace:5998,,Auli kapell,,60.03688399999999,11.398037,,,1,,2,,,700
91,NSR:StopPlace:3339,,Eltonåsen skole,,60.13166999999999,11.014821000000001,,,1,,2,,,700
92,NSR:StopPlace:5999,,Årvoll senter,,59.944835999999995,10.808444,,,1,,2,,,700
93,NSR:StopPlace:4669,,Strandtoppen,,59.590214,10.66196,,,1,,2,,,700
94,NSR:StopPlace:3338,,Kløfta veiskille,,59.752155,10.637392,,,1,,2,,,700
95,NSR:StopPlace:3340,,Bekkevar,,60.151990000000005,11.00453,,,1,,2,,,700
96,NSR:StopPlace:4671,,Sagastubben,,59.590862,10.658482000000001,,,1,,2,,,700
97,NSR:StopPlace:4670,,Saga,,59.99519300000001,10.918911,,,1,,2,,,700
98,NSR:StopPlace:4673,,Mortetjern,,59.987246999999996,10.938941999999999,,,1,,2,,,700
99,NSR:StopPlace:3342,,Sørli,,59.81625,10.6296,,,1,,2,,,700
100,NSR:StopPlace:3341,,Askervangen,,59.83493000000001,10.416838,,,1,,2,,,700
101,NSR:StopPlace:4672,,Bråtebuktveien,,59.594147,10.657662,,,1,,2,,,700
102,NSR:StopPlace:3344,,Drengsrud skole,,59.828644,10.408002999999999,,,1,,2,,,700
103,NSR:StopPlace:4675,,Gamlebakken,,59.596793999999996,10.658576,,,1,,2,,,700
104,NSR:StopPlace:3343,,Trøgstadberget,,60.148433999999995,11.008562,,,1,,2,,,700
105,NSR:StopPlace:4674,,Grønvold,,60.16457,11.17164,,,1,,2,,,700
106,NSR:StopPlace:3346,,Rovold,,60.145267000000004,11.011902000000001,,,1,,2,,,700
107,NSR:StopPlace:4676,,Tjernslia,,59.978232999999996,10.935715,,,1,,2,,,700
108,NSR:StopPlace:3345,,Ellingstad,,59.80613,10.624298,,,1,,2,,,700
109,NSR:StopPlace:3369,,Engelsrud,,59.81986,10.365960000000001,,,1,,2,,,700
110,NSR:StopPlace:17352,,Brakerøya stasjon,,59.743730000000006,10.231879,,,1,,2,,,700
111,NSR:StopPlace:17351,,Brakerøya,,59.742188,10.226977999999999,,,1,,2,,,700
112,NSR:StopPlace:17350,,CC Kjøpesenter,,59.741714,10.223203999999999,,,1,,2,,,700
113,NSR:StopPlace:3371,,Erpestadhellinga,,60.153164000000004,11.035783,,,1,,2,,,700
114,NSR:StopPlace:3370,,Erpestad,,60.153477,11.032943,,,1,,2,,,700
115,NSR:StopPlace:3373,,Høymyrmarka,,59.787296,10.478976,,,1,,2,,,700
116,NSR:StopPlace:6400,,Nordpolen skole,,59.94031999999999,10.772621000000001,,,1,,2,,,700
117,NSR:StopPlace:3372,,Lienga,,59.818335999999995,10.782886,,,1,,2,,,700
118,NSR:StopPlace:3375,,Hvitebjørnveien,,59.820519999999995,10.772746000000001,,,1,,2,,,700
119,NSR:StopPlace:3374,,Holterdalen,,60.15075699999999,11.041383999999999,,,1,,2,,,700
120,NSR:StopPlace:6403,,Linhusveien,,59.957756,10.641589,,,1,,2,,,700
121,NSR:StopPlace:3377,,Holkebylia,,60.267593000000005,11.03979,,,1,,2,,,700
122,NSR:StopPlace:6404,,Haarklous plass,,59.937740000000005,10.774011999999999,,,1,,2,,,700
123,NSR:StopPlace:3379,,Orrhanevegen,,60.263905,11.041382,,,1,,2,,,700
124,NSR:StopPlace:6402,,Holter,,60.20397,11.408263,,,1,,2,,,700
125,NSR:StopPlace:3378,,Mastemyr,,59.815437,10.784561,,,1,,2,,,700
126,NSR:StopPlace:3359,,Labråteveien,,59.732872,10.599169999999999,,,1,,2,,,700
127,NSR:StopPlace:3358,,Vardåsen skole,,59.819576,10.38159,,,1,,2,,,700
128,NSR:StopPlace:4689,,Skogtun,,60.155308,11.172272,,,1,,2,,,700
129,NSR:StopPlace:17349,,Losjeplassen,,59.742752,10.21531,,,1,,2,,,700
130,NSR:StopPlace:17348,,Tinghuset,,59.74345,10.2108,,,1,,2,,,700
131,NSR:StopPlace:17347,,Brandtenborggata,,59.742973,10.22152,,,1,,2,,,700
132,NSR:StopPlace:4691,,Lahaugmoen,,59.983909999999995,10.960792,,,1,,2,,,700
133,NSR:StopPlace:3360,,Løken skole,,60.139630000000004,11.05376,,,1,,2,,,700
134,NSR:StopPlace:4690,,Garder kirke,,59.580684999999995,10.810437,,,1,,2,,,700
135,NSR:StopPlace:4693,,Gjelleråstoppen,,59.98896,10.930562,,,1,,2,,,700
136,NSR:StopPlace:3362,,Fagerstrand,,59.733909999999995,10.586545,,,1,,2,,,1000
137,NSR:StopPlace:3361,,Sportstuen,,59.820269999999994,10.38138,,,1,,2,,,700
138,NSR:StopPlace:4692,,Kjenn,,59.5674,10.736583,,,1,,2,,,700
139,NSR:StopPlace:3364,,Fagerli,,60.155533,11.029893,,,1,,2,,,700
140,NSR:StopPlace:4695,,Svingen,,59.57465,10.736751,,,1,,2,,,700
141,NSR:StopPlace:3363,,Nedre Harstad gård,,60.14318000000001,11.024246,,,1,,2,,,700
142,NSR:StopPlace:4694,,Skogmo skole,,60.14076,11.199911,,,1,,2,,,700
143,NSR:StopPlace:3366,,Svinesjøen,,59.82115600000001,10.372019,,,1,,2,,,700
144,NSR:StopPlace:4697,,Deliveien,,59.57796999999999,10.737594999999999,,,1,,2,,,700
145,NSR:StopPlace:4696,,Markerud,,60.005694999999996,10.917171000000002,,,1,,2,,,700
146,NSR:StopPlace:3365,,Mastemyr hotell,,59.823277000000004,10.782336,,,1,,2,,,700
147,NSR:StopPlace:4699,,Kremmerhuset,,60.15335,11.1718,,,1,,2,,,700
148,NSR:StopPlace:3368,,Gjersjø bru,,59.809086,10.776047,,,1,,2,,,700
149,NSR:StopPlace:4698,,Slattum,,60.011078000000005,10.917651,,,1,,2,,,700
150,NSR:StopPlace:3367,,Fagerli sykehjem,,60.15671999999999,11.030758,,,1,,2,,,700
151,NSR:StopPlace:6418,,Kristoffer Aamots gate,,59.946915000000004,10.769608,,,1,,2,,,700
152,NSR:StopPlace:6419,,Peder Ankers plass,,59.96180699999999,10.640626,,,1,,2,,,700
153,NSR:StopPlace:6416,,Bogstad Camping,,59.962067000000005,10.642581,,,1,,2,,,700
154,NSR:StopPlace:6417,,Jerpestad,,60.21488000000001,11.398661,,,1,,2,,,700
155,NSR:StopPlace:3391,,Oppegård næringspark,,59.810623,10.777019000000001,,,1,,2,,,700
156,NSR:StopPlace:3390,,Håkavik,,59.799643999999994,10.487644,,,1,,2,,,700
157,NSR:StopPlace:3393,,Bjerkås,,59.79224,10.485983000000001,,,1,,2,,,700
158,NSR:StopPlace:3392,,Slattumhagen,,60.17097,10.987022999999999,,,1,,2,,,700
159,NSR:StopPlace:6421,,Storo senter,,59.946102,10.775605,,,1,,2,,,700
160,NSR:StopPlace:3395,,Austaddalsvegen,på Åsvegen,60.17100000000001,10.990121,,,1,,2,,,700
161,NSR:StopPlace:6422,,Grindbakken,,59.97091999999999,10.644228,,,1,,2,,,700
162,NSR:StopPlace:3394,,Gjersjøen,,59.80811,10.779799,,,1,,2,,,700
163,NSR:StopPlace:3397,,Fevikshagan,,60.168716,10.992308999999999,,,1,,2,,,700
164,NSR:StopPlace:6420,,Voksen skog,,59.97513000000001,10.644497,,,1,,2,,,700
165,NSR:StopPlace:6425,,Åsly,,59.96864300000001,10.64447,,,1,,2,,,700
166,NSR:StopPlace:3398,,Ingierodden,,59.8056,10.781922999999999,,,1,,2,,,700
167,NSR:StopPlace:6424,,Kværnen,,60.244724,11.379932,,,1,,2,,,700
168,NSR:StopPlace:6407,,Torshovtoppen,,59.938885,10.78028,,,1,,2,,,700
169,NSR:StopPlace:6408,,Jarbakken,,59.954937,10.657136999999999,,,1,,2,,,700
170,NSR:StopPlace:6406,,Vennerstua,,59.95449,10.643631,,,1,,2,,,700
171,NSR:StopPlace:6409,,Sandaker,,59.94194,10.770259,,,1,,2,,,700
172,NSR:StopPlace:3382,,Trollåsen,,59.8182,10.777792999999999,,,1,,2,,,700
173,NSR:StopPlace:3381,,Røyvegen,,60.262096,11.038922999999999,,,1,,2,,,700
174,NSR:StopPlace:3384,,Stensethagan,,60.259865000000005,11.035582000000002,,,1,,2,,,700
175,NSR:StopPlace:6410,,Nordre Jarbakken,,59.956615,10.654249,,,1,,2,,,700
176,NSR:StopPlace:3383,,Arnestad,,59.803143000000006,10.486972,,,1,,2,,,700
177,NSR:StopPlace:6411,,Farset,,60.20783,11.405161999999999,,,1,,2,,,700
178,NSR:StopPlace:3385,,Sagveien,,59.813736,10.776292999999999,,,1,,2,,,700
179,NSR:StopPlace:3388,,Elnes,,59.797028000000005,10.487477,,,1,,2,,,700
180,NSR:StopPlace:6414,,Himstadplassen,,59.962967000000006,10.645897,,,1,,2,,,700
181,NSR:StopPlace:3387,,Kløvberget,,60.27008000000001,11.042676,,,1,,2,,,700
182,NSR:StopPlace:6412,,Sagstua,,59.96035799999999,10.649591000000001,,,1,,2,,,700
183,NSR:StopPlace:6413,,Lillo gård,,59.944862,10.772008999999999,,,1,,2,,,700
184,NSR:StopPlace:3389,,Damvegen,,60.17470600000001,10.985357,,,1,,2,,,700
185,NSR:StopPlace:5901,,Vestbyveien,i Jernkroken,59.952755,10.890619000000001,,,1,,2,,,700
186,NSR:StopPlace:5902,,Ryen T,,59.895283,10.804903999999999,,,1,,2,,,700
187,NSR:StopPlace:5900,,Ryen,,59.895714,10.804995,,,1,,2,,,401
188,NSR:StopPlace:5905,,Økern,,59.928233999999996,10.805964999999999,,,1,,2,,,401
189,NSR:StopPlace:5906,,Dragsjøvegen,,60.1123,11.50126,,,1,,2,,,700
190,NSR:StopPlace:5903,,Grorud stasjon,rampe mot Østre Aker vei,59.951305000000005,10.885536,,,1,,2,,,700
191,NSR:StopPlace:5909,,Ryenberget,,59.897544999999994,10.802622999999999,,,1,,2,,,700
192,NSR:StopPlace:5907,,Økern T,,59.92835600000001,10.806856,,,1,,2,,,700
193,NSR:StopPlace:5908,,Bjørvika,,59.908085,10.756905,,,1,,2,,,900
194,NSR:StopPlace:60178,,Steilene,,59.816303000000005,10.61555,,,1,,2,,,1000
195,NSR:StopPlace:5923,,Manglerud senter,ved senteret,59.896809999999995,10.81403,,,1,,2,,,700
196,NSR:StopPlace:5924,,Traktorveien,,59.89924,10.810388,,,1,,2,,,700
197,NSR:StopPlace:5921,,Rolstad,,60.23614499999999,11.369479,,,1,,2,,,700
198,NSR:StopPlace:5922,,Risløkka,,59.93251,10.82315,,,1,,2,,,401
199,NSR:StopPlace:5927,,Nedre Valstad,,60.241825,11.356285,,,1,,2,,,700
200,NSR:StopPlace:5928,,Nedre Risløkka,,59.930096,10.811792,,,1,,2,,,700
201,NSR:StopPlace:5925,,Risløkkalléen,,59.93095,10.823315,,,1,,2,,,700
202,NSR:StopPlace:5926,,Manglerudveien,,59.89990600000001,10.803375,,,1,,2,,,700
203,NSR:StopPlace:5929,,Furuveien,,59.903442000000005,10.80264,,,1,,2,,,700
204,NSR:StopPlace:5930,,Rabbeveien,,59.932163,10.813945,,,1,,2,,,700
205,NSR:StopPlace:5931,,Rugveien,,59.895680000000006,10.817917,,,1,,2,,,700
206,NSR:StopPlace:4600,,Værhaug,,60.005221999999996,11.000486,,,1,,2,,,700
207,NSR:StopPlace:5913,,Auli mølle,,60.11014599999999,11.553814,,,1,,2,,,700
208,NSR:StopPlace:5911,,Ryensvingen,,59.89443000000001,10.805900999999999,,,1,,2,,,700
209,NSR:StopPlace:5916,,Økern næringspark,,59.926809999999996,10.811223,,,1,,2,,,700
210,NSR:StopPlace:5917,,Manglerud,,59.898014,10.812785,,,1,,2,,,401
211,NSR:StopPlace:5914,,Økern aldershjem,,59.93253000000001,10.808313,,,1,,2,,,700
212,NSR:StopPlace:5915,,Sandstuveien,,59.891125,10.809931,,,1,,2,,,700
213,NSR:StopPlace:5918,,Lånekassen,,59.928185,10.8114,,,1,,2,,,700
214,NSR:StopPlace:5919,,Manglerud T,på Ring 3,59.898056000000004,10.813459,,,1,,2,,,700
215,NSR:StopPlace:5920,,Ulven torg,,59.925293,10.812333,,,1,,2,,,700
216,NSR:StopPlace:4613,,Lund gård,,60.10094,11.235380000000001,,,1,,2,,,700
217,NSR:StopPlace:5945,,Økernbråten,,59.939816,10.825023,,,1,,2,,,700
218,NSR:StopPlace:5946,,Manglerud skole,,59.894206999999994,10.82121,,,1,,2,,,700
219,NSR:StopPlace:4612,,Fossum gård,,60.007492000000006,10.997387,,,1,,2,,,700
220,NSR:StopPlace:4615,,Tærud,,60.006924,11.012628999999999,,,1,,2,,,700
221,NSR:StopPlace:5943,,Øvre Risløkka,,59.937934999999996,10.823379,,,1,,2,,,700
222,NSR:StopPlace:5944,,Rognerud,,59.901830000000004,10.825274,,,1,,2,,,700
223,NSR:StopPlace:4614,,Svarthagsveien,,59.623123,10.739604,,,1,,2,,,700
224,NSR:StopPlace:4617,,Langgata,,60.013165,10.978449000000001,,,1,,2,,,700
225,NSR:StopPlace:5949,,Idrettsveien,,60.218815,11.389603999999999,,,1,,2,,,700
226,NSR:StopPlace:5947,,Linderud,,59.94095600000001,10.838405,,,1,,2,,,401
227,NSR:StopPlace:5948,,Skuronnveien,,59.891740000000006,10.821858,,,1,,2,,,700
228,NSR:StopPlace:4618,,Borgen,rampe E16,60.09205600000001,11.215255,,,1,,2,,,700
229,NSR:StopPlace:4620,,Stav,,59.962425,11.006772,,,1,,2,,,700
230,NSR:StopPlace:5952,,Linne hotell,,59.939713,10.829649,,,1,,2,,,700
231,NSR:StopPlace:5953,,Abildsø,,59.879906000000005,10.825933000000001,,,1,,2,,,700
232,NSR:StopPlace:4622,,Rettenveien,,59.95907,11.011776,,,1,,2,,,700
233,NSR:StopPlace:5950,,Linderud T,,59.941418000000006,10.838636,,,1,,2,,,700
234,NSR:StopPlace:5951,,Treskeveien,,59.889219999999995,10.818354,,,1,,2,,,700
235,NSR:StopPlace:4621,,Moradammen,,59.592724,10.718322,,,1,,2,,,700
236,NSR:StopPlace:4602,,Borgen skole,,60.097893000000006,11.219874,,,1,,2,,,700
237,NSR:StopPlace:5934,,Ihle meieri,,60.252823,11.341343,,,1,,2,,,700
238,NSR:StopPlace:5935,,Høyenhall,,59.905930000000005,10.819761,,,1,,2,,,401
239,NSR:StopPlace:4601,,Krusebyen,,59.59715,10.725769999999999,,,1,,2,,,700
240,NSR:StopPlace:5932,,Anton Tschudis vei,,59.93541,10.815586999999999,,,1,,2,,,700
241,NSR:StopPlace:4603,,Ringnesåsen,,60.010380000000005,10.994993,,,1,,2,,,700
242,NSR:StopPlace:5933,,Lundliveien,,59.9359,10.811293,,,1,,2,,,700
243,NSR:StopPlace:4606,,Høgda,,59.612488,10.739942,,,1,,2,,,700
244,NSR:StopPlace:5938,,Vollebekkveien,,59.936969999999995,10.825595,,,1,,2,,,700
245,NSR:StopPlace:5939,,Bryn senter,,59.904625,10.821791000000001,,,1,,2,,,700
246,NSR:StopPlace:4605,,Eventyråsen,,60.006042,11.019357000000001,,,1,,2,,,700
247,NSR:StopPlace:4608,,Midtskogveien,,60.003654000000004,11.022852,,,1,,2,,,700
248,NSR:StopPlace:5936,,Vollebekk,,59.93589,10.83111,,,1,,2,,,401
249,NSR:StopPlace:5937,,Høyenhall T,,59.907005000000005,10.819294000000001,,,1,,2,,,700
250,NSR:StopPlace:4607,,Borgen,i Gamle Kongsvingerveg,60.09392,11.213014999999999,,,1,,2,,,700
251,NSR:StopPlace:4609,,Landåsveien,,59.60978000000001,10.741,,,1,,2,,,700
252,NSR:StopPlace:5941,,Kroklia,,59.93711,10.819532,,,1,,2,,,700
253,NSR:StopPlace:4611,,Randemveien,,59.607224,10.74295,,,1,,2,,,700
254,NSR:StopPlace:4610,,Solberg,,60.012809999999995,10.984339,,,1,,2,,,700
255,NSR:StopPlace:5940,,Orresvingen,,60.21626,11.385767999999999,,,1,,2,,,700
256,NSR:StopPlace:4635,,Brattfoss,,60.140133,11.217431,,,1,,2,,,700
257,NSR:StopPlace:3304,,Furuheim,,60.221313,10.967405,,,1,,2,,,700
258,NSR:StopPlace:5967,,Veitvetstubben,,59.943706999999996,10.841477000000001,,,1,,2,,,700
259,NSR:StopPlace:997,,Verpet,,59.644817,11.338786,,,1,,2,,,700
260,NSR:StopPlace:3303,,Erlands vei,,59.811726,10.457408000000001,,,1,,2,,,700
261,NSR:StopPlace:5968,,Godlia,,59.90725,10.83589,,,1,,2,,,401
262,NSR:StopPlace:4634,,Ospelia,,59.976475,10.931271,,,1,,2,,,700
263,NSR:StopPlace:5965,,Veitvet,på Trondheimsveien,59.945602,10.845292,,,1,,2,,,700
264,NSR:StopPlace:4637,,Elsbergs vei,,59.596527,10.69293,,,1,,2,,,700
265,NSR:StopPlace:3306,,Eskerud,,60.219443999999996,10.963491000000001,,,1,,2,,,700
266,NSR:StopPlace:3305,,Torget,,59.810223,10.689912,,,1,,2,,,700
267,NSR:StopPlace:5966,,Langerudveien,,59.873721999999994,10.829684,,,1,,2,,,700
268,NSR:StopPlace:4636,,Gamle Trondheimsvei,,59.975919999999995,10.934339,,,1,,2,,,700
269,NSR:StopPlace:3308,,Nordbykrysset,,60.21709,10.960489,,,1,,2,,,700
270,NSR:StopPlace:4639,,Solhøy skole,,59.52137,10.702561,,,1,,2,,,700
271,NSR:StopPlace:3307,,Skogheim,,59.73737,10.594692,,,1,,2,,,700
272,NSR:StopPlace:4638,,Øvre Bjertnes,,60.04877,10.877302,,,1,,2,,,700
273,NSR:StopPlace:3309,,Jørgens vei,,59.81162,10.45009,,,1,,2,,,700
274,NSR:StopPlace:5970,,Nylandsvegen,,60.03979,11.370095,,,1,,2,,,700
275,NSR:StopPlace:5971,,Skøyenåsen,,59.899136,10.836655,,,1,,2,,,401
276,NSR:StopPlace:4640,,Ås,,60.119778000000004,11.237063000000001,,,1,,2,,,700
277,NSR:StopPlace:3311,,Bergheim,,59.74096,10.598765,,,1,,2,,,700
278,NSR:StopPlace:5974,,Linderud senter,,59.9438,10.836718,,,1,,2,,,700
279,NSR:StopPlace:5975,,Skøyenkroken,,59.897625,10.838021000000001,,,1,,2,,,700
280,NSR:StopPlace:3310,,Kringler bru,,60.236534,10.991887,,,1,,2,,,700
281,NSR:StopPlace:4641,,Nygård barnehage,,60.048396999999994,10.870942,,,1,,2,,,700
282,NSR:StopPlace:5972,,Linderudsletta,,59.944202000000004,10.835776,,,1,,2,,,700
283,NSR:StopPlace:3313,,Blakstad hageby,,59.816223,10.46599,,,1,,2,,,700
284,NSR:StopPlace:4644,,Stellas vei,,59.594887,10.69623,,,1,,2,,,700
285,NSR:StopPlace:5973,,Skøyenåsen T,,59.900546999999996,10.836266,,,1,,2,,,700
286,NSR:StopPlace:995,,Trøgstad Mølla,,59.644146,11.326746,,,1,,2,,,700
287,NSR:StopPlace:3312,,Skjennum gård,,60.232569999999996,10.99815,,,1,,2,,,700
288,NSR:StopPlace:4643,,Nygårdssvingen,,60.049988,10.87155,,,1,,2,,,700
289,NSR:StopPlace:5956,,Smedberg,,59.884613,10.818133,,,1,,2,,,700
290,NSR:StopPlace:4624,,Vestbyhallen,,59.597324,10.708826,,,1,,2,,,700
291,NSR:StopPlace:5957,,Siemens,,59.937992,10.837297,,,1,,2,,,700
292,NSR:StopPlace:4623,,Flindrum,,60.10941,11.240806,,,1,,2,,,700
293,NSR:StopPlace:5954,,Nedre Vollebekk,,59.933643000000004,10.827478,,,1,,2,,,700
294,NSR:StopPlace:5955,,Aulifeltet,,60.037815,11.364647999999999,,,1,,2,,,700
295,NSR:StopPlace:4625,,Niels Høeghs vei,,59.954502000000005,11.007427,,,1,,2,,,700
296,NSR:StopPlace:4627,,Leikvoll,,60.026782999999995,11.037968,,,1,,2,,,700
297,NSR:StopPlace:5958,,Alléen,,59.8881,10.814313,,,1,,2,,,700
298,NSR:StopPlace:4629,,Myrersletta,,60.023230000000005,11.035110000000001,,,1,,2,,,700
299,NSR:StopPlace:5959,,Vollebekk,,59.936005,10.833077000000001,,,1,,2,,,700
300,NSR:StopPlace:5960,,Veitvetveien,,59.940430000000006,10.85484,,,1,,2,,,700
301,NSR:StopPlace:4631,,Karen Bachs vei,,59.59366,10.704787,,,1,,2,,,700
302,NSR:StopPlace:3300,,Gullhella sykehjem,,59.814648,10.446247999999999,,,1,,2,,,700
303,NSR:StopPlace:5963,,Veitvet,,59.9445,10.846895,,,1,,2,,,401
304,NSR:StopPlace:4630,,Støverud,,60.131176,11.263421000000001,,,1,,2,,,700
305,NSR:StopPlace:5964,,Lille Langerud,,59.87610600000001,10.828298,,,1,,2,,,700
306,NSR:StopPlace:5961,,Bogerudmyra,,59.881972999999995,10.833924,,,1,,2,,,700
307,NSR:StopPlace:4633,,Preislers vei,,59.598569999999995,10.698125,,,1,,2,,,700
308,NSR:StopPlace:3302,,Kringler gamle skole,,60.223347,10.971525,,,1,,2,,,700
309,NSR:StopPlace:3301,,Lovisenlund,,59.812819999999995,10.687246,,,1,,2,,,700
310,NSR:StopPlace:4632,,Gjelleråsen,,59.985817000000004,10.928078999999999,,,1,,2,,,700
311,NSR:StopPlace:5962,,Auli senter,,60.03379,11.351624000000001,,,1,,2,,,700
312,NSR:StopPlace:5191,,Ramstad,,59.885994,11.093211,,,1,,2,,,700
313,NSR:StopPlace:5192,,Rømåa,,60.195994999999996,11.285927000000001,,,1,,2,,,700
314,NSR:StopPlace:5195,,Furumoveien,,59.640969999999996,10.829791,,,1,,2,,,700
315,NSR:StopPlace:5194,,Berger,,59.725806999999996,11.085614999999999,,,1,,2,,,700
316,NSR:StopPlace:5197,,Kaksrud,,59.613234999999996,10.827621,,,1,,2,,,700
317,NSR:StopPlace:5196,,Enebakk sykehjem,,59.731403,11.110888000000001,,,1,,2,,,700
318,NSR:StopPlace:5199,,Bekkevold,,59.727863,11.100275,,,1,,2,,,700
319,NSR:StopPlace:5198,,Stensby,,60.19286700000001,11.272125,,,1,,2,,,700
320,NSR:StopPlace:2900,,Moss bussterminal,,59.436440000000005,10.662746,,,1,,2,,,700
321,NSR:StopPlace:5180,,Sentralholtet,i Holstadveien,59.667190000000005,10.804995,,,1,,2,,,700
322,NSR:StopPlace:5182,,Eika,,59.89541,11.09838,,,1,,2,,,700
323,NSR:StopPlace:5181,,Musehogget,,60.197353,11.30016,,,1,,2,,,700
324,NSR:StopPlace:5184,,Oppsal,,59.9001,11.094654,,,1,,2,,,700
325,NSR:StopPlace:5183,,Rustad skole,,59.66543000000001,10.809686,,,1,,2,,,700
326,NSR:StopPlace:5186,,Grøndalen,,60.194030000000005,11.294426,,,1,,2,,,700
327,NSR:StopPlace:5188,,Melby,,59.706734,10.771207,,,1,,2,,,700
328,NSR:StopPlace:5187,,Engerhagan,,59.90246,11.092818,,,1,,2,,,700
329,NSR:StopPlace:5189,,Kirkeby,,59.916340000000005,11.080917,,,1,,2,,,700
330,NSR:StopPlace:60129,,Strømsdalen,,59.94797,11.026682000000001,,,1,,2,,,700
331,NSR:StopPlace:9590,,Dysterud bru,,60.197514,11.576814,,,1,,2,,,700
332,NSR:StopPlace:60139,,Flatbyseter,,60.13385400000001,11.213887,,,1,,2,,,700
333,NSR:StopPlace:60138,,Kløvervegen,,60.137443999999995,11.212304,,,1,,2,,,700
334,NSR:StopPlace:16808,,Bragernes torg,,59.74416,10.202630000000001,,,1,,2,,,700
335,NSR:StopPlace:16804,,Drammen busstasjon,,59.740604000000005,10.20017,,,1,,2,,,700
336,NSR:StopPlace:60156,,Lilletorget,,59.91429,10.757513000000001,,,1,,2,,,900
337,NSR:StopPlace:5108,,Reierstad,,60.11054,11.301033,,,1,,2,,,700
338,NSR:StopPlace:5107,,Stenfelt,,59.758503000000005,10.8174,,,1,,2,,,700
339,NSR:StopPlace:6438,,Hovland,,60.234595999999996,11.386403,,,1,,2,,,700
340,NSR:StopPlace:6439,,Skøyen,,59.92341,10.681401,,,1,,2,,,900
341,NSR:StopPlace:5109,,Fjerdingby,,59.92211999999999,11.072159,,,1,,2,,,700
342,NSR:StopPlace:6440,,Møllerveien,,59.920685,10.75141,,,1,,2,,,700
343,NSR:StopPlace:6443,,Thune,,59.92183000000001,10.687707000000001,,,1,,2,,,900
344,NSR:StopPlace:5111,,Fjerdingby skole,,59.923122,11.068346,,,1,,2,,,700
345,NSR:StopPlace:5110,,Gamle Vevelstadvei,,59.754180000000005,10.829847000000001,,,1,,2,,,700
346,NSR:StopPlace:6441,,Skøyen,,59.923115,10.681625,,,1,,2,,,700
347,NSR:StopPlace:5113,,Marikollen skole,,59.924004000000004,11.065333,,,1,,2,,,700
348,NSR:StopPlace:6442,,Birkelunden,,59.926809999999996,10.761061999999999,,,1,,2,,,700
349,NSR:StopPlace:5112,,Stenfeltlia,,59.761309999999995,10.822429,,,1,,2,,,700
350,NSR:StopPlace:5115,,Kauserudkrysset,,60.088955000000006,11.263382,,,1,,2,,,700
351,NSR:StopPlace:6448,,Hoff,,59.924862,10.675419999999999,,,1,,2,,,900
352,NSR:StopPlace:6445,,Thune,,59.92183000000001,10.687771000000001,,,1,,2,,,700
353,NSR:StopPlace:5116,,Rælingen rådhus,,59.926147,11.066822,,,1,,2,,,700
354,NSR:StopPlace:6446,,Fenstad skole,,60.215540000000004,11.399458000000001,,,1,,2,,,700
355,NSR:StopPlace:6429,,Skøyen stasjon,,59.922169999999994,10.6793,,,1,,2,,,700
356,NSR:StopPlace:6427,,Liabakken,,59.966328000000004,10.644636,,,1,,2,,,700
357,NSR:StopPlace:58650,,Ski stasjon Nordbyveien,,59.720592,10.834684,,,1,,2,,,700
358,NSR:StopPlace:60978,,Majorstuen,i Bogstadveien,59.928627,10.716178999999999,,,1,,2,,,700
359,NSR:StopPlace:6432,,Skøyen,,59.922867000000004,10.678429,,,1,,2,,,700
360,NSR:StopPlace:5100,,Vevelstad gård,,59.761345,10.843036999999999,,,1,,2,,,700
361,NSR:StopPlace:5102,,Berghagan,,59.763725,10.842952,,,1,,2,,,700
362,NSR:StopPlace:5101,,Logn,,59.93904499999999,11.062366,,,1,,2,,,700
363,NSR:StopPlace:6431,,Inngjerdingen,,60.221745,11.410353,,,1,,2,,,700
364,NSR:StopPlace:5104,,Furukollen,,59.94559,11.030358999999999,,,1,,2,,,700
365,NSR:StopPlace:5103,,Gamlevegen,,60.076609999999995,11.127863,,,1,,2,,,700
366,NSR:StopPlace:6434,,Sjølyst,,59.920869999999994,10.675849000000001,,,1,,2,,,700
367,NSR:StopPlace:5106,,Karibekken,,59.844207999999995,11.128915,,,1,,2,,,700
368,NSR:StopPlace:6435,,Jakob kirke,,59.917717,10.754242999999999,,,1,,2,,,700
369,NSR:StopPlace:5105,,Regnbueveien,,59.772422999999996,10.850111,,,1,,2,,,700
370,NSR:StopPlace:5129,,Ramstad terrasse,,59.74525,10.845336,,,1,,2,,,700
371,NSR:StopPlace:6461,,Knatten,,60.093227,11.4647,,,1,,2,,,700
372,NSR:StopPlace:5131,,Retvedt,,59.65466,10.918905,,,1,,2,,,700
373,NSR:StopPlace:6460,,Ullern,,59.92443000000001,10.659292,,,1,,2,,,900
374,NSR:StopPlace:5130,,Norum,,59.934906000000005,11.059211999999999,,,1,,2,,,700
375,NSR:StopPlace:6465,,Furulund,,59.92025400000001,10.650223,,,1,,2,,,900
376,NSR:StopPlace:5133,,Brinken,,60.137623,11.162186,,,1,,2,,,700
377,NSR:StopPlace:5132,,Dovre fabrikker,,59.929745,11.06052,,,1,,2,,,700
378,NSR:StopPlace:6463,,Maritim,,59.91831,10.664305,,,1,,2,,,700
379,NSR:StopPlace:5135,,Rud skole,,59.944959999999995,11.042205000000001,,,1,,2,,,700
380,NSR:StopPlace:5137,,Petrinehøy,,59.946175,11.035210000000001,,,1,,2,,,700
381,NSR:StopPlace:6469,,Brauter,,60.103767000000005,11.441778999999999,,,1,,2,,,700
382,NSR:StopPlace:5136,,Li,,59.65949200000001,10.910463,,,1,,2,,,700
383,NSR:StopPlace:5139,,Brokkenhus,,59.817917,10.898318,,,1,,2,,,700
384,NSR:StopPlace:6468,,Vækerø,,59.915580000000006,10.65053,,,1,,2,,,700
385,NSR:StopPlace:5138,,Tungen,,60.133033999999995,11.173726,,,1,,2,,,700
386,NSR:StopPlace:5118,,Rælingen vgs.,,59.92751,11.063558,,,1,,2,,,700
387,NSR:StopPlace:6449,,Sannergata,,59.928375,10.759343,,,1,,2,,,700
388,NSR:StopPlace:6450,,Hoff,,59.925380000000004,10.675263000000001,,,1,,2,,,700
389,NSR:StopPlace:6451,,Dælenenga,,59.928177000000005,10.766463,,,1,,2,,,700
390,NSR:StopPlace:5120,,Rælingsbrua,,59.951457999999995,11.037113,,,1,,2,,,700
391,NSR:StopPlace:6454,,Eggumvegen,,60.203545,11.422146000000001,,,1,,2,,,700
392,NSR:StopPlace:5121,,Ormstad,,60.077763,11.277084,,,1,,2,,,700
393,NSR:StopPlace:6455,,Jarlsborgveien,,59.930363,10.675911,,,1,,2,,,700
394,NSR:StopPlace:6452,,Hoff terrasse,,59.927719999999994,10.675310000000001,,,1,,2,,,700
395,NSR:StopPlace:5124,,Steinsleppen,,59.74166999999999,10.825298,,,1,,2,,,700
396,NSR:StopPlace:6453,,Københavngata,,59.929157,10.769414,,,1,,2,,,700
397,NSR:StopPlace:5123,,Dammensvika,,59.949768000000006,11.040372,,,1,,2,,,700
398,NSR:StopPlace:6458,,Abbediengen,,59.925197999999995,10.667204,,,1,,2,,,900
399,NSR:StopPlace:5126,,Ingjersmyr,,60.090816000000004,11.255815,,,1,,2,,,700
400,NSR:StopPlace:5125,,Hagastubakken,,59.942028,11.050686,,,1,,2,,,700
401,NSR:StopPlace:5128,,Øgardshøgda,,59.93858,11.054707,,,1,,2,,,700
402,NSR:StopPlace:6457,,Smestaddammen,,59.934456000000004,10.678917,,,1,,2,,,700
403,NSR:StopPlace:6480,,Tøyen skole,,59.915062,10.773264999999999,,,1,,2,,,700
404,NSR:StopPlace:5151,,Gystad bosenter,,60.147181999999994,11.193652,,,1,,2,,,700
405,NSR:StopPlace:6484,,Øraker,,59.925114,10.629673,,,1,,2,,,900
406,NSR:StopPlace:5150,,Linjeveien,,59.952118000000006,11.024799,,,1,,2,,,700
407,NSR:StopPlace:6481,,Vækerøveien,,59.923637,10.643231,,,1,,2,,,700
408,NSR:StopPlace:5153,,Stalsberghagen,,59.945719999999994,11.020404,,,1,,2,,,700
409,NSR:StopPlace:5152,,Ås ungdomsskole,,59.667767000000005,10.800336,,,1,,2,,,700
410,NSR:StopPlace:6482,,Østhagen,,60.094467,11.476286,,,1,,2,,,700
411,NSR:StopPlace:6487,,Volvat,,59.9326,10.704514,,,1,,2,,,700
412,NSR:StopPlace:5155,,Øvre Strømsdal,,59.945564000000005,11.026739,,,1,,2,,,700
413,NSR:StopPlace:5154,,Vinterbro,,59.739754000000005,10.776593,,,1,,2,,,700
414,NSR:StopPlace:6488,,Grønland,,59.912806999999994,10.760162,,,1,,2,,,401
415,NSR:StopPlace:5157,,Vinterbro senter,,59.740364,10.770653999999999,,,1,,2,,,700
416,NSR:StopPlace:6485,,Lysaker bru,,59.91409,10.640715,,,1,,2,,,700
417,NSR:StopPlace:6486,,Munchmuseet,,59.916943,10.775917999999999,,,1,,2,,,700
418,NSR:StopPlace:5156,,Kløfta bosenter,,60.07926,11.128903,,,1,,2,,,700
419,NSR:StopPlace:5159,,Myrås,,59.742022999999996,10.7794,,,1,,2,,,700
420,NSR:StopPlace:5158,,Sæterveien,,59.944959999999995,11.028646,,,1,,2,,,700
421,NSR:StopPlace:6489,,Velvang,,60.10858,11.452078,,,1,,2,,,700
422,NSR:StopPlace:6472,,Sollerud,,59.920956000000004,10.643180000000001,,,1,,2,,,900
423,NSR:StopPlace:5140,,Smestad skole,,59.907936,11.08995,,,1,,2,,,700
424,NSR:StopPlace:6473,,Tøyen,,59.915268000000005,10.775286999999999,,,1,,2,,,401
425,NSR:StopPlace:6470,,Helgesens gate,,59.921659999999996,10.775205,,,1,,2,,,700
426,NSR:StopPlace:5142,,Holt,,59.911680000000004,11.08348,,,1,,2,,,700
427,NSR:StopPlace:5144,,Narvestad,,59.851172999999996,11.108674,,,1,,2,,,700
428,NSR:StopPlace:6476,,Folmo,,60.14518399999999,11.491958,,,1,,2,,,700
429,NSR:StopPlace:5143,,TusenFryd,,59.749264000000004,10.781589,,,1,,2,,,700
430,NSR:StopPlace:6477,,Lilleaker,,59.921043000000004,10.635950999999999,,,1,,2,,,700
431,NSR:StopPlace:6474,,Lilleaker,,59.920795,10.635764,,,1,,2,,,900
432,NSR:StopPlace:5146,,Bye,,59.853995999999995,11.099794000000001,,,1,,2,,,700
433,NSR:StopPlace:5145,,Soltun bosenter,,60.142967000000006,11.166476,,,1,,2,,,700
434,NSR:StopPlace:5148,,Eikeliveien,,59.952090000000005,11.034463,,,1,,2,,,700
435,NSR:StopPlace:5147,,Fålesloråsen,,59.75125500000001,10.781691,,,1,,2,,,700
436,NSR:StopPlace:6478,,Tøyen,i Kjølberggata,59.914590000000004,10.776908,,,1,,2,,,700
437,NSR:StopPlace:5149,,Ås videregående skole,,59.664593,10.796535,,,1,,2,,,700
438,NSR:StopPlace:6479,,CC vest,,59.91794599999999,10.636821000000001,,,1,,2,,,700
439,NSR:StopPlace:5171,,Askehaug,,59.73256,10.740908000000001,,,1,,2,,,700
440,NSR:StopPlace:5170,,Blystadlia,,59.931144999999994,11.03449,,,1,,2,,,700
441,NSR:StopPlace:5173,,Vollebekk,,59.664882999999996,10.761425,,,1,,2,,,700
442,NSR:StopPlace:5172,,Torgenholtet,,59.937664,11.019922,,,1,,2,,,700
443,NSR:StopPlace:5175,,Fjellheim,,60.198933,11.305800999999999,,,1,,2,,,700
444,NSR:StopPlace:5174,,Kurlandsveien,,59.93942,11.01649,,,1,,2,,,700
445,NSR:StopPlace:5177,,Teigen,,59.848580000000005,11.1167,,,1,,2,,,700
446,NSR:StopPlace:5176,,Fosterud,,59.676269999999995,10.745367,,,1,,2,,,700
447,NSR:StopPlace:5179,,Skovholt,,59.890423,11.100261,,,1,,2,,,700
448,NSR:StopPlace:5178,,Trosterud ved Årungen,,59.68107,10.7433,,,1,,2,,,700
449,NSR:StopPlace:6490,,Borgen,,59.934616000000005,10.695694999999999,,,1,,2,,,401
450,NSR:StopPlace:5160,,Skytilveien,,59.94112,11.024941,,,1,,2,,,700
451,NSR:StopPlace:6494,,Heggeli,,59.935680000000005,10.691066000000001,,,1,,2,,,700
452,NSR:StopPlace:5162,,Løvenstad senter,,59.938244,11.021027,,,1,,2,,,700
453,NSR:StopPlace:5161,,Kveldroveien,,59.734116,10.777727,,,1,,2,,,700
454,NSR:StopPlace:6495,,Norbygata,,59.912914,10.764595,,,1,,2,,,700
455,NSR:StopPlace:5164,,Sjøskogen,,59.737305000000006,10.762888,,,1,,2,,,700
456,NSR:StopPlace:6492,,Borgen,,59.934580000000004,10.69727,,,1,,2,,,700
457,NSR:StopPlace:5163,,Markavegen,,60.151286999999996,11.188139999999999,,,1,,2,,,700
458,NSR:StopPlace:6493,,Tøyengata,,59.91235,10.764531,,,1,,2,,,700
459,NSR:StopPlace:6498,,Tøyenkirken,,59.914787,10.769081,,,1,,2,,,700
460,NSR:StopPlace:5165,,Løvenstadvegen,,59.935593000000004,11.024527,,,1,,2,,,700
461,NSR:StopPlace:6499,,Smestad,,59.937557,10.683276,,,1,,2,,,700
462,NSR:StopPlace:6496,,Smestad,,59.93723000000001,10.684085000000001,,,1,,2,,,401
463,NSR:StopPlace:5168,,Gystadmarka skole,,60.1523,11.192408,,,1,,2,,,700
464,NSR:StopPlace:5167,,Sandbekkhallen,,59.933040000000005,11.027374,,,1,,2,,,700
465,NSR:StopPlace:6497,,Årnes stasjon,,60.123332999999995,11.465076,,,1,,2,,,700
466,NSR:StopPlace:5868,,Minisuper`n,,60.115093,11.492478,,,1,,2,,,700
467,NSR:StopPlace:3205,,Julsrud,,60.378628000000006,11.199297999999999,,,1,,2,,,700
468,NSR:StopPlace:4536,,Randembakken,,59.612697999999995,10.744528,,,1,,2,,,700
469,NSR:StopPlace:3204,,Midtre Spro,,59.759845999999996,10.588691,,,1,,2,,,700
470,NSR:StopPlace:4535,,Riis,,59.982803000000004,11.051176,,,1,,2,,,700
471,NSR:StopPlace:5866,,Bredtvet,,59.946197999999995,10.863081,,,1,,2,,,700
472,NSR:StopPlace:3207,,Granholt,,59.8609,10.665434,,,1,,2,,,700
473,NSR:StopPlace:4538,,Trollerud,,59.58886999999999,10.709325,,,1,,2,,,700
474,NSR:StopPlace:5867,,Bølerskrenten,,59.88287,10.844322,,,1,,2,,,700
475,NSR:StopPlace:3206,,Bårstad,,60.257884999999995,11.297228,,,1,,2,,,700
476,NSR:StopPlace:3209,,Blakstad bussterminal,,59.81921,10.465448,,,1,,2,,,700
477,NSR:StopPlace:4539,,Vestvollen,,59.993347,11.036756,,,1,,2,,,700
478,NSR:StopPlace:3208,,Strand,,60.305983999999995,11.275435,,,1,,2,,,700
479,NSR:StopPlace:5872,,Martin Linges vei,,59.880419999999994,10.839845,,,1,,2,,,700
480,NSR:StopPlace:3210,,Bårliåsen,,60.319286,11.262493,,,1,,2,,,700
481,NSR:StopPlace:4541,,Randemfaret,,59.610409999999995,10.741891,,,1,,2,,,700
482,NSR:StopPlace:5870,,Bøler eldresenter,,59.883476,10.846059,,,1,,2,,,700
483,NSR:StopPlace:4540,,Prost Holms vei,,59.98952,11.036247,,,1,,2,,,700
484,NSR:StopPlace:3212,,Søndre Spro,,59.758266000000006,10.587439,,,1,,2,,,700
485,NSR:StopPlace:5875,,Nedre Kalbakkvei,,59.942753,10.858977000000001,,,1,,2,,,700
486,NSR:StopPlace:4543,,Prost Stabels vei,,59.98777,11.027472999999999,,,1,,2,,,700
487,NSR:StopPlace:4542,,Frogner stadion,,59.927216,10.712684,,,1,,2,,,700
488,NSR:StopPlace:5876,,Sandbergveien,,60.105415,11.504891,,,1,,2,,,700
489,NSR:StopPlace:3211,,Sundet Rådhusgata,,60.32889,11.259614,,,1,,2,,,700
490,NSR:StopPlace:3214,,Nedre Frydendal,,59.842464,10.422842,,,1,,2,,,700
491,NSR:StopPlace:4545,,Holt senter,,59.987536999999996,11.035563,,,1,,2,,,700
492,NSR:StopPlace:5874,,Bogerud,,59.876056999999996,10.84207,,,1,,2,,,401
493,NSR:StopPlace:3213,,Wergelands gate,,60.328915,11.2575,,,1,,2,,,700
494,NSR:StopPlace:4525,,Bjørnerud,,59.588085,10.762825,,,1,,2,,,700
495,NSR:StopPlace:5857,,Østmarkveien,,59.89176,10.854975,,,1,,2,,,700
496,NSR:StopPlace:5858,,Grorud senter,i Bergensveien,59.961707999999994,10.882257000000001,,,1,,2,,,700
497,NSR:StopPlace:5855,,Ulsrudveien,,59.892480000000006,10.849173,,,1,,2,,,700
498,NSR:StopPlace:4527,,Vigelandsparken,,59.92456,10.708146000000001,,,1,,2,,,700
499,NSR:StopPlace:5856,,Grorudkrysset,,59.959747,10.885694,,,1,,2,,,700
500,NSR:StopPlace:4526,,Isakbekken,,59.951702000000004,11.076599,,,1,,2,,,700
501,NSR:StopPlace:4529,,Brautertoppen,,59.977276,11.0565,,,1,,2,,,700
502,NSR:StopPlace:4528,,Presterud,,59.5749,10.800338,,,1,,2,,,700
503,NSR:StopPlace:5859,,Olav Nygards veg,,59.888638,10.852258,,,1,,2,,,700
504,NSR:StopPlace:59904,,Øvre Sogn,,59.956238,10.722106,,,1,,2,,,700
505,NSR:StopPlace:5860,,Furukollen,,60.11403000000001,11.493872,,,1,,2,,,700
506,NSR:StopPlace:5861,,Hagelundveien,,59.965405000000004,10.883459,,,1,,2,,,700
507,NSR:StopPlace:4530,,Furukollen,,59.57139,10.794008,,,1,,2,,,700
508,NSR:StopPlace:4532,,Nordsnoveien,,59.971264,11.051207000000002,,,1,,2,,,700
509,NSR:StopPlace:3201,,Tømtedalen,,60.372944,11.202385000000001,,,1,,2,,,700
510,NSR:StopPlace:5864,,Lillomarka barnehage,,59.970325,10.876455,,,1,,2,,,700
511,NSR:StopPlace:3200,,Nordre Spro,,59.76323299999999,10.589755,,,1,,2,,,700
512,NSR:StopPlace:5865,,Bøler T,,59.88354,10.843903,,,1,,2,,,700
513,NSR:StopPlace:4534,,Forskningsparken,,59.973946,11.045634,,,1,,2,,,700
514,NSR:StopPlace:3203,,Leangkollen,,59.832993,10.465999,,,1,,2,,,700
515,NSR:StopPlace:5862,,Bøler,,59.884240000000005,10.84539,,,1,,2,,,401
516,NSR:StopPlace:4533,,Svineskog,,59.566340000000004,10.783526,,,1,,2,,,700
517,NSR:StopPlace:3202,,Lokalet,,60.27879,11.290731,,,1,,2,,,700
518,NSR:StopPlace:5863,,Skogstad,,59.967983,10.881943,,,1,,2,,,700
519,NSR:StopPlace:4558,,Verpet,,59.62092,10.740045,,,1,,2,,,700
520,NSR:StopPlace:3226,,Hanevold,,59.84568,10.42399,,,1,,2,,,700
521,NSR:StopPlace:3229,,Gaupa,,59.74697,10.590747,,,1,,2,,,700
522,NSR:StopPlace:5888,,Grorud stasjon,,59.95126,10.886196,,,1,,2,,,700
523,NSR:StopPlace:4559,,Skedsmo kirke,,59.991215000000004,11.048681,,,1,,2,,,700
524,NSR:StopPlace:5889,,Grorud stasjon,i Østre Aker vei,59.950005000000004,10.885069,,,1,,2,,,700
525,NSR:StopPlace:3228,,Sagvegen,,60.297955,11.152223,,,1,,2,,,700
526,NSR:StopPlace:58603,,Brånåslia,,59.993046,11.026867,,,1,,2,,,700
527,NSR:StopPlace:5890,,Sletnervegen,,60.109165000000004,11.537958999999999,,,1,,2,,,700
528,NSR:StopPlace:4561,,Vestby skole,,59.59650799999999,10.754706,,,1,,2,,,700
529,NSR:StopPlace:3230,,Stavivegen,,60.302277000000004,11.159725,,,1,,2,,,700
530,NSR:StopPlace:4560,,Haugenlia,,60.002163,11.025075,,,1,,2,,,700
531,NSR:StopPlace:4563,,Veibrån,,59.99677,11.02736,,,1,,2,,,700
532,NSR:StopPlace:5891,,Langerud sykehjem,,59.869354,10.835872,,,1,,2,,,700
533,NSR:StopPlace:3232,,Ormlia,,60.309307,11.149691,,,1,,2,,,700
534,NSR:StopPlace:3231,,Vøyen,,59.849377000000004,10.420833,,,1,,2,,,700
535,NSR:StopPlace:5892,,Bekkenstenveien,,59.953219999999995,10.886047999999999,,,1,,2,,,700
536,NSR:StopPlace:4562,,Mosvingen,,60.18195,11.230533,,,1,,2,,,700
537,NSR:StopPlace:4565,,Vestvollveien,,59.99485,11.032309,,,1,,2,,,700
538,NSR:StopPlace:5897,,Skullerudkrysset,,59.863552,10.832002000000001,,,1,,2,,,700
539,NSR:StopPlace:3234,,Haakens,,60.304527,11.157979,,,1,,2,,,700
540,NSR:StopPlace:4564,,Vestbytorget,,59.601402,10.746638,,,1,,2,,,700
541,NSR:StopPlace:3233,,Solbakken,,59.741493000000006,10.590714,,,1,,2,,,700
542,NSR:StopPlace:5898,,Ødegård,,60.110645,11.520675,,,1,,2,,,700
543,NSR:StopPlace:4567,,Skedsmokorset,,60.003969999999995,11.032679,,,1,,2,,,700
544,NSR:StopPlace:5895,,Skullerudbakken,,59.863728,10.836907,,,1,,2,,,700
545,NSR:StopPlace:3236,,Bråtengutua,,60.301880000000004,11.14783,,,1,,2,,,700
546,NSR:StopPlace:3235,,Solgården,,59.849509999999995,10.447759,,,1,,2,,,700
547,NSR:StopPlace:3216,,Sandheimveien,,59.755480000000006,10.590973,,,1,,2,,,700
548,NSR:StopPlace:5879,,Welding Olsens vei,,59.87055,10.847324,,,1,,2,,,700
549,NSR:StopPlace:4546,,Kleverveien,,59.61793,10.739834,,,1,,2,,,700
550,NSR:StopPlace:3218,,Biterudveien,,59.841395999999996,10.429389,,,1,,2,,,700
551,NSR:StopPlace:5877,,Bogerud T,,59.875187,10.84194,,,1,,2,,,700
552,NSR:StopPlace:4549,,Vestby brannstasjon,,59.609069999999996,10.742628,,,1,,2,,,700
553,NSR:StopPlace:4548,,Holt Industri,,59.986194999999995,11.028943,,,1,,2,,,700
554,NSR:StopPlace:5878,,Nyland stasjon,,59.944153,10.869993,,,1,,2,,,700
555,NSR:StopPlace:3217,,Vilberg,,60.33112,11.261609,,,1,,2,,,700
556,NSR:StopPlace:3219,,Vilberggarasjen,,60.329432999999995,11.269781,,,1,,2,,,700
557,NSR:StopPlace:59921,,Gaustadveien,,59.9539,10.717732,,,1,,2,,,700
558,NSR:StopPlace:59922,,Gaustad sykehus,,59.9513,10.716452,,,1,,2,,,700
559,NSR:StopPlace:60913,,Blaker kirke,,60.001034,11.301069,,,1,,2,,,700
560,NSR:StopPlace:60914,,Værhaugstubben,,59.99669300000001,11.302649,,,1,,2,,,700
561,NSR:StopPlace:4550,,Selmer,,59.984924,11.020207000000001,,,1,,2,,,700
562,NSR:StopPlace:5882,,Skullerudveien,,59.867367,10.844135000000001,,,1,,2,,,700
563,NSR:StopPlace:4552,,Uranienborgveien,,59.921192000000005,10.722589,,,1,,2,,,700
564,NSR:StopPlace:5880,,Stanseveien,,59.94686,10.877447,,,1,,2,,,700
565,NSR:StopPlace:3221,,Gruemyra,,60.324290000000005,11.27944,,,1,,2,,,700
566,NSR:StopPlace:3220,,Store Rud,,59.753563,10.591766999999999,,,1,,2,,,700
567,NSR:StopPlace:4551,,Regnbueveien,,59.61496999999999,10.744157000000001,,,1,,2,,,700
568,NSR:StopPlace:3223,,Elvik,,60.321915000000004,11.280813,,,1,,2,,,700
569,NSR:StopPlace:4554,,Nordlysveien,,59.618359999999996,10.744208,,,1,,2,,,700
570,NSR:StopPlace:4553,,Skedsmosenteret,,60.000690000000006,11.038607,,,1,,2,,,700
571,NSR:StopPlace:3222,,Frydendal,,59.843605000000004,10.425006,,,1,,2,,,700
572,NSR:StopPlace:5887,,Skullerud T,,59.866615,10.840000999999999,,,1,,2,,,700
573,NSR:StopPlace:4556,,Skedsmovollen,,59.996894999999995,11.044078,,,1,,2,,,700
574,NSR:StopPlace:3225,,Rødvika,,60.32878,11.124153,,,1,,2,,,700
575,NSR:StopPlace:3224,,Østli,,59.749763,10.591341,,,1,,2,,,700
576,NSR:StopPlace:5885,,Skullerud,,59.866547,10.840085,,,1,,2,,,401
577,NSR:StopPlace:4555,,Vestbysenteret,,59.61866,10.741371000000001,,,1,,2,,,700
578,NSR:StopPlace:3249,,Nordre Granerud,,59.78615,10.638553,,,1,,2,,,700
579,NSR:StopPlace:4579,,Kopperud,,60.224552,11.231339,,,1,,2,,,700
580,NSR:StopPlace:3248,,Grue,,60.332703,11.289582000000001,,,1,,2,,,700
581,NSR:StopPlace:3250,,Dal stasjon,,60.249072999999996,11.203389,,,1,,2,,,700
582,NSR:StopPlace:4580,,Åsenhagen skole,,60.00982,11.030681,,,1,,2,,,700
583,NSR:StopPlace:4583,,Vestby kirke,,59.601783999999995,10.73265,,,1,,2,,,700
584,NSR:StopPlace:3252,,Granerud bilverksted,,59.7827,10.636315,,,1,,2,,,700
585,NSR:StopPlace:3251,,Hagaløkka,,59.833313000000004,10.423682000000001,,,1,,2,,,700
586,NSR:StopPlace:4582,,Strømmen kirke,,59.95301,11.016665,,,1,,2,,,700
587,NSR:StopPlace:4584,,Bernt Ankers vei,,59.95101,11.016219,,,1,,2,,,700
588,NSR:StopPlace:3256,,Rødhettes vei,,59.821796,10.423149,,,1,,2,,,700
589,NSR:StopPlace:4587,,Kastellveien,,59.95045,11.019458,,,1,,2,,,700
590,NSR:StopPlace:4586,,Vestby bru,,59.6026,10.743341000000001,,,1,,2,,,700
591,NSR:StopPlace:3255,,Søndre Granerud,,59.78031,10.637033,,,1,,2,,,700
592,NSR:StopPlace:3258,,Nesodden kirke,,59.80554,10.690475,,,1,,2,,,700
593,NSR:StopPlace:4589,,Bruerløkka,,59.551730000000006,10.742453999999999,,,1,,2,,,700
594,NSR:StopPlace:3257,,Skovseth,,60.33914,11.287245,,,1,,2,,,700
595,NSR:StopPlace:4588,,Kurbadet,,59.94928,11.020817999999998,,,1,,2,,,700
596,NSR:StopPlace:4569,,Vestby stasjon,,59.604209999999995,10.749717,,,1,,2,,,700
597,NSR:StopPlace:3238,,Asker kirke,,59.84215,10.436566000000001,,,1,,2,,,700
598,NSR:StopPlace:3237,,Fjell veiskille,,59.794956000000006,10.636403,,,1,,2,,,700
599,NSR:StopPlace:4568,,Inngjerdingen,,60.181778,11.237601,,,1,,2,,,700
600,NSR:StopPlace:5899,,Vestbyveien,i Bekkenstenveien,59.95341,10.887855,,,1,,2,,,700
601,NSR:StopPlace:3239,,Styrilia,,60.321369999999995,11.295009,,,1,,2,,,700
602,NSR:StopPlace:60935,,Nybrottveien,,59.724915,10.823008,,,1,,2,,,700
603,NSR:StopPlace:60936,,Måsaveien,,59.725014,10.817907,,,1,,2,,,700
604,NSR:StopPlace:60933,,Austliveien,,59.72275500000001,10.824387,,,1,,2,,,700
605,NSR:StopPlace:60934,,Nybrottveien øst,,59.72447,10.828416,,,1,,2,,,700
606,NSR:StopPlace:60937,,Kongleveien,,59.72461,10.815858,,,1,,2,,,700
607,NSR:StopPlace:4570,,Thomas Olsens vei,,59.605430000000005,10.671899,,,1,,2,,,700
608,NSR:StopPlace:4572,,Hvitsten torg,,59.59875,10.655499,,,1,,2,,,700
609,NSR:StopPlace:3241,,Lunner,,59.791495999999995,10.637875,,,1,,2,,,700
610,NSR:StopPlace:4571,,Lund i Brånåsdalen,,59.994015000000005,11.029222,,,1,,2,,,700
611,NSR:StopPlace:3240,,Åserud,,60.319683,11.295099,,,1,,2,,,700
612,NSR:StopPlace:3243,,Asker museum,,59.853657,10.455653,,,1,,2,,,700
613,NSR:StopPlace:4574,,Røsletta,,60.183296,11.25258,,,1,,2,,,700
614,NSR:StopPlace:4573,,Brånås skole,,59.997322,11.021733,,,1,,2,,,700
615,NSR:StopPlace:3242,,Ludviksbakken,,60.316063,11.295963,,,1,,2,,,700
616,NSR:StopPlace:4576,,Brånås skog,,60.00156,11.023945,,,1,,2,,,700
617,NSR:StopPlace:3245,,Fagerhøi,,59.788742000000006,10.63768,,,1,,2,,,700
618,NSR:StopPlace:60932,,Seljeveien vest,,59.723026000000004,10.819194,,,1,,2,,,700
619,NSR:StopPlace:3244,,Fosserud,,60.313416000000004,11.298663000000001,,,1,,2,,,700
620,NSR:StopPlace:4575,,Kullebunn,,59.60259,10.663464,,,1,,2,,,700
621,NSR:StopPlace:4578,,Hølen torg,,59.539627,10.742554,,,1,,2,,,700
622,NSR:StopPlace:3247,,Asker stasjon,,59.83331,10.433721,,,1,,2,,,700
623,NSR:StopPlace:4577,,Fjellsetveien,,59.994827,11.024102000000001,,,1,,2,,,700
624,NSR:StopPlace:3246,,Eriksen,,60.328430000000004,11.293386,,,1,,2,,,700
625,NSR:StopPlace:3270,,Sydhagen,,59.80381800000001,10.672632,,,1,,2,,,700
626,NSR:StopPlace:3272,,Rønningen skole,,59.819355,10.428376,,,1,,2,,,700
627,NSR:StopPlace:3271,,Bønsdalen,,60.287178000000004,11.188707,,,1,,2,,,700
628,NSR:StopPlace:3274,,Rudsborg,,59.800587,10.691052,,,1,,2,,,700
629,NSR:StopPlace:6300,,Tannlegehøyskolen,,59.93286,10.74217,,,1,,2,,,700
630,NSR:StopPlace:6301,,Holtteien,,60.06763,11.435966,,,1,,2,,,700
631,NSR:StopPlace:3273,,Bønsmovegen,,60.28556,11.178727,,,1,,2,,,700
632,NSR:StopPlace:3276,,Østhellinga,,59.816517000000005,10.43036,,,1,,2,,,700
633,NSR:StopPlace:3275,,Råholthallen,,60.28395,11.171073,,,1,,2,,,700
634,NSR:StopPlace:3278,,Bøn sykehjem,,60.290634,11.20374,,,1,,2,,,700
635,NSR:StopPlace:3277,,Jaer gård,,59.794388,10.690818,,,1,,2,,,700
636,NSR:StopPlace:6305,,Lybekkveien,,59.952652,10.673867,,,1,,2,,,700
637,NSR:StopPlace:6302,,Midtstuen,,59.961327000000004,10.68304,,,1,,2,,,401
638,NSR:StopPlace:6303,,Ullevål sykehus,i Sognsveien,59.936240000000005,10.731988000000001,,,1,,2,,,700
639,NSR:StopPlace:3279,,Barlindbekken,,59.814246999999995,10.428021000000001,,,1,,2,,,700
640,NSR:StopPlace:3259,,Borgen skole,,59.82639,10.421916,,,1,,2,,,700
641,NSR:StopPlace:3261,,Gustav Wentzels vei,,59.83047,10.420222,,,1,,2,,,700
642,NSR:StopPlace:4592,,Bylterudveien,,59.55826,10.73975,,,1,,2,,,700
643,NSR:StopPlace:4591,,Åsenhagen,,60.014275,11.031608,,,1,,2,,,700
644,NSR:StopPlace:3260,,Hagan,,60.342983,11.290334,,,1,,2,,,700
645,NSR:StopPlace:3263,,Svae,,59.805572999999995,10.682511,,,1,,2,,,700
646,NSR:StopPlace:4594,,Hannestadtoppen,,59.60618,10.713664999999999,,,1,,2,,,700
647,NSR:StopPlace:4593,,Tærudhallen,,60.012207,11.016867,,,1,,2,,,700
648,NSR:StopPlace:3262,,Helge Neumanns veg,,60.335319999999996,11.266214,,,1,,2,,,700
649,NSR:StopPlace:3265,,Fredbos vei,,59.831703000000005,10.425397,,,1,,2,,,700
650,NSR:StopPlace:4596,,Borgen,i Kongsvingervegen,60.09150699999999,11.216683999999999,,,1,,2,,,700
651,NSR:StopPlace:4595,,Tæruddalen,,60.007706000000006,11.015634,,,1,,2,,,700
652,NSR:StopPlace:3264,,Vilberg helsetun,,60.33396,11.2677,,,1,,2,,,700
653,NSR:StopPlace:4598,,Tærudstien,,60.01053,11.016154,,,1,,2,,,700
654,NSR:StopPlace:3267,,Vilberg barneskole,,60.331734,11.262858999999999,,,1,,2,,,700
655,NSR:StopPlace:3266,,Smia,,59.805209999999995,10.678177999999999,,,1,,2,,,700
656,NSR:StopPlace:3269,,Lars Tønsagers veg,,60.33557,11.269333,,,1,,2,,,700
657,NSR:StopPlace:3268,,Askeladdveien,,59.823319999999995,10.426658999999999,,,1,,2,,,700
658,NSR:StopPlace:2754,,Kongens gate,,59.437267000000006,10.668484,,,1,,2,,,700
659,NSR:StopPlace:2759,,Verket,,59.442206999999996,10.671567999999999,,,1,,2,,,700
660,NSR:StopPlace:5802,,Emanuelfjell,,59.96685,10.900265,,,1,,2,,,700
661,NSR:StopPlace:5803,,Rødtvet,,59.951384999999995,10.859426,,,1,,2,,,401
662,NSR:StopPlace:5800,,Svarttjern,,59.96929599999999,10.905488,,,1,,2,,,700
663,NSR:StopPlace:5801,,Lambertseter T,på brua over T-banen,59.873478000000006,10.810307,,,1,,2,,,700
664,NSR:StopPlace:5806,,Norheim,,60.223569999999995,11.388791000000001,,,1,,2,,,700
665,NSR:StopPlace:5807,,Gina Krogs vei,,59.87534300000001,10.816141,,,1,,2,,,700
666,NSR:StopPlace:5804,,Lambertseter senter,,59.873509999999996,10.812274,,,1,,2,,,700
667,NSR:StopPlace:5805,,Rødtvet T,,59.950336,10.857056,,,1,,2,,,700
668,NSR:StopPlace:5809,,Søndre Hellerud,,59.871616,10.805615,,,1,,2,,,700
669,NSR:StopPlace:5810,,Kalbakken,,59.954563,10.8668,,,1,,2,,,401
670,NSR:StopPlace:2764,,Verket skole,,59.444683,10.676960000000001,,,1,,2,,,700
671,NSR:StopPlace:2769,,Gamleveien,,59.443923999999996,10.675222999999999,,,1,,2,,,700
672,NSR:StopPlace:2774,,Childrens International School,,59.439569999999996,10.669098,,,1,,2,,,700
673,NSR:StopPlace:5824,,Sagstuveien,,59.95404,10.880607000000001,,,1,,2,,,700
674,NSR:StopPlace:5825,,Bergkrystallen T,,59.866688,10.821807000000002,,,1,,2,,,700
675,NSR:StopPlace:5822,,Grønlund,,59.95389599999999,10.875013000000001,,,1,,2,,,700
676,NSR:StopPlace:5823,,Bergkrystallen,,59.86708,10.821710000000001,,,1,,2,,,401
677,NSR:StopPlace:5828,,Blåfjellet,,59.869614,10.814886,,,1,,2,,,700
678,NSR:StopPlace:5829,,Ammerud,,59.95827,10.87197,,,1,,2,,,401
679,NSR:StopPlace:5826,,Grorud skole,,59.958330000000004,10.882767,,,1,,2,,,700
680,NSR:StopPlace:5827,,Stein skole,,60.13576,11.374788,,,1,,2,,,700
681,NSR:StopPlace:5831,,Ammerud T,i Ammerudveien,59.958065000000005,10.870711,,,1,,2,,,700
682,NSR:StopPlace:5832,,Glimmerveien,,59.870396,10.820424000000001,,,1,,2,,,700
683,NSR:StopPlace:4501,,Floraveien,,59.963074,11.059378,,,1,,2,,,700
684,NSR:StopPlace:4500,,Homansbyen,,59.923542000000005,10.727222,,,1,,2,,,700
685,NSR:StopPlace:5830,,Mellombølgen,,59.869884,10.815392,,,1,,2,,,700
686,NSR:StopPlace:5813,,Vormsund,,60.153973,11.414114,,,1,,2,,,700
687,NSR:StopPlace:5814,,Mylskerudveien,,59.874928000000004,10.805336,,,1,,2,,,700
688,NSR:StopPlace:5811,,Lambertseterveien,,59.871283999999996,10.807072999999999,,,1,,2,,,700
689,NSR:StopPlace:5812,,Flaen,,59.954494,10.868103999999999,,,1,,2,,,700
690,NSR:StopPlace:5817,,Kalbakkstubben,,59.950540000000004,10.866302000000001,,,1,,2,,,700
691,NSR:StopPlace:5818,,Munkelia T,,59.868373999999996,10.813361,,,1,,2,,,700
692,NSR:StopPlace:5815,,Kalbakkveien,,59.951480000000004,10.865376,,,1,,2,,,700
693,NSR:StopPlace:5816,,Munkelia,,59.869009999999996,10.812560000000001,,,1,,2,,,401
694,NSR:StopPlace:5819,,Nordtvetveien,,59.952316,10.870324,,,1,,2,,,700
695,NSR:StopPlace:5820,,Kulmoen,,60.14444399999999,11.400874,,,1,,2,,,700
696,NSR:StopPlace:5821,,Langbølgen,,59.865387,10.814612,,,1,,2,,,700
697,NSR:StopPlace:4514,,Grorød,,59.547028000000005,10.754395,,,1,,2,,,700
698,NSR:StopPlace:5846,,Ammerudlunden,,59.96066,10.872124000000001,,,1,,2,,,700
699,NSR:StopPlace:4513,,Kjerulfs gate,,59.955794999999995,11.052369,,,1,,2,,,700
700,NSR:StopPlace:5847,,Ulsrud,,59.889526000000004,10.849515,,,1,,2,,,401
701,NSR:StopPlace:4516,,Frogner plass,,59.921893999999995,10.704887,,,1,,2,,,700
702,NSR:StopPlace:5844,,Huken,,59.9716,10.87415,,,1,,2,,,700
703,NSR:StopPlace:4515,,St. Olavs gate,,59.954952,11.056768,,,1,,2,,,700
704,NSR:StopPlace:5845,,Åsly,,60.137173,11.379947999999999,,,1,,2,,,700
705,NSR:StopPlace:4518,,Pukkverket,,59.585280000000004,10.766233999999999,,,1,,2,,,700
706,NSR:StopPlace:4517,,Leiv Eirikssons gate,,59.95491,11.061598,,,1,,2,,,700
707,NSR:StopPlace:17295,,Sørensvingen,,59.75865,10.11945,,,1,,2,,,700
708,NSR:StopPlace:5848,,Grorud,,59.961426,10.880775,,,1,,2,,,401
709,NSR:StopPlace:5849,,Ulsrud T,,59.88966,10.849229,,,1,,2,,,700
710,NSR:StopPlace:4519,,Roald Amundsens gate,,59.955616000000006,11.068078,,,1,,2,,,700
711,NSR:StopPlace:5850,,Grorud T,,59.960903,10.882942,,,1,,2,,,700
712,NSR:StopPlace:5853,,Jøranstien,,59.8884,10.836267,,,1,,2,,,700
713,NSR:StopPlace:4521,,Vigernes,,59.956127,11.072398,,,1,,2,,,700
714,NSR:StopPlace:4520,,Brandstad,i Brandstadveien,59.544968000000004,10.750786999999999,,,1,,2,,,700
715,NSR:StopPlace:4523,,Kjærstad,,59.586117,10.810768,,,1,,2,,,700
716,NSR:StopPlace:5851,,Østbyveien,,59.88875600000001,10.843346,,,1,,2,,,700
717,NSR:StopPlace:5852,,Råbukkvegen,,60.132626,11.360192,,,1,,2,,,700
718,NSR:StopPlace:4503,,Måsasvingen vest,,59.968254,11.051677,,,1,,2,,,700
719,NSR:StopPlace:5835,,Ammerudhellinga,,59.962467000000004,10.872715,,,1,,2,,,700
720,NSR:StopPlace:4502,,Langenga,,59.828140000000005,10.458926,,,1,,2,,,700
721,NSR:StopPlace:5836,,Delerud,,60.131638,11.354330000000001,,,1,,2,,,700
722,NSR:StopPlace:4505,,Leiraveien,,59.96080799999999,11.063773,,,1,,2,,,700
723,NSR:StopPlace:5833,,Ammerud,på Trondheimsveien,59.957916000000004,10.873635,,,1,,2,,,700
724,NSR:StopPlace:4504,,Fusdal,,59.831619999999994,10.440885,,,1,,2,,,700
725,NSR:StopPlace:5834,,Feltspatveien,,59.87302,10.820657,,,1,,2,,,700
726,NSR:StopPlace:5839,,Nylænde,,59.875717,10.819495,,,1,,2,,,700
727,NSR:StopPlace:4507,,Tegnebyholtet,,59.516464,10.735403999999999,,,1,,2,,,700
728,NSR:StopPlace:5837,,Marmorveien,,59.874446999999996,10.821578,,,1,,2,,,700
729,NSR:StopPlace:4509,,Bekkelaget,,59.532173,10.748259,,,1,,2,,,700
730,NSR:StopPlace:4508,,Måsasvingen øst,,59.966652,11.053898,,,1,,2,,,700
731,NSR:StopPlace:5838,,Ammerud skole,,59.964466,10.871807,,,1,,2,,,700
732,NSR:StopPlace:4510,,Brauterkrysset,,59.970016,11.05128,,,1,,2,,,700
733,NSR:StopPlace:5842,,Breisjøgrenda,,59.968990000000005,10.871121,,,1,,2,,,700
734,NSR:StopPlace:4512,,Brandstad,i Osloveien,59.54554,10.749725,,,1,,2,,,700
735,NSR:StopPlace:5840,,Alundamveien,,59.966440000000006,10.870308999999999,,,1,,2,,,700
736,NSR:StopPlace:5841,,Seterbråten,,59.833057,10.827871,,,1,,2,,,700
737,NSR:StopPlace:5070,,Rolandsveien,,59.815585999999996,10.904949,,,1,,2,,,700
738,NSR:StopPlace:5072,,Skinnerudvegen,,60.082302,11.134379,,,1,,2,,,700
739,NSR:StopPlace:5071,,Mittskog,,59.860535,11.320037,,,1,,2,,,700
740,NSR:StopPlace:5074,,Skjønberg,,59.872257,11.084155,,,1,,2,,,700
741,NSR:StopPlace:5073,,Rolborg,,59.784490000000005,10.963026,,,1,,2,,,700
742,NSR:StopPlace:5076,,Nordby skole,,59.864822,11.092796,,,1,,2,,,700
743,NSR:StopPlace:5075,,Bindingsvann,,59.78207,10.971405,,,1,,2,,,700
744,NSR:StopPlace:5078,,Tomter,,59.862026,11.094579,,,1,,2,,,700
745,NSR:StopPlace:5077,,Furuberget,,59.779194,10.977505,,,1,,2,,,700
746,NSR:StopPlace:5079,,Averstadmoen,,60.0794,11.136279,,,1,,2,,,700
747,NSR:StopPlace:15401,,Verket ferjekai,,59.613319999999995,10.413376,,,1,,2,,,700
748,NSR:StopPlace:6391,,Sæveruds plass,,59.935280000000006,10.774842999999999,,,1,,2,,,700
749,NSR:StopPlace:6392,,Ekraveien,,59.950386,10.636997000000001,,,1,,2,,,401
750,NSR:StopPlace:5061,,Rausjøveien,,59.788909999999994,10.954106,,,1,,2,,,700
751,NSR:StopPlace:6390,,Røa kirke,,59.94987,10.644405,,,1,,2,,,700
752,NSR:StopPlace:5060,,Åreppen skole,,60.086327000000004,11.131702,,,1,,2,,,700
753,NSR:StopPlace:6395,,Ekraveien,,59.951693999999996,10.636515,,,1,,2,,,700
754,NSR:StopPlace:5063,,Stasjonsveien,,59.681183,10.883653,,,1,,2,,,700
755,NSR:StopPlace:5062,,Gråorveien,,59.946873,11.15366,,,1,,2,,,700
756,NSR:StopPlace:6393,,Hagaskogvegen,,60.118584,11.474335,,,1,,2,,,700
757,NSR:StopPlace:5065,,Sigtunet,,59.682334999999995,10.879746,,,1,,2,,,700
758,NSR:StopPlace:5064,,Røsslyngveien,,59.943881999999995,11.152188,,,1,,2,,,700
759,NSR:StopPlace:5067,,Verkensvegen,,60.137905,11.173288000000001,,,1,,2,,,700
760,NSR:StopPlace:5066,,Vitåsen,,59.940830000000005,11.149127,,,1,,2,,,700
761,NSR:StopPlace:5069,,Svingen stasjon,,59.928833,11.177447,,,1,,2,,,700
762,NSR:StopPlace:5068,,Kråkstad skole,,59.67873,10.884473,,,1,,2,,,700
763,NSR:StopPlace:6398,,Sandaker senter,,59.9393,10.769036999999999,,,1,,2,,,700
764,NSR:StopPlace:5090,,Sundhagen,,59.928314,11.069927,,,1,,2,,,700
765,NSR:StopPlace:5092,,Aamodt,,59.931540000000005,11.068211,,,1,,2,,,700
766,NSR:StopPlace:5091,,Vevelstad stasjon,,59.75654,10.839367,,,1,,2,,,700
767,NSR:StopPlace:5094,,Orderud,,59.945071999999996,11.04958,,,1,,2,,,700
768,NSR:StopPlace:5093,,Vevelstadåsen,,59.757763,10.84737,,,1,,2,,,700
769,NSR:StopPlace:5096,,Lundsletta,,60.09861,11.259265,,,1,,2,,,700
770,NSR:StopPlace:5098,,Vevelstadlia,,59.75956,10.845489,,,1,,2,,,700
771,NSR:StopPlace:5097,,Borgen,,59.942028,11.058874000000001,,,1,,2,,,700
772,NSR:StopPlace:5099,,Aamodttoppen,,59.933586,11.068431,,,1,,2,,,700
773,NSR:StopPlace:5081,,Langhus stasjon,,59.749683,10.83746,,,1,,2,,,700
774,NSR:StopPlace:5080,,Fjellstadfeltet,,59.857445,11.096634,,,1,,2,,,700
775,NSR:StopPlace:5083,,Jahr,,59.88271700000001,11.091247000000001,,,1,,2,,,700
776,NSR:StopPlace:5082,,Ødegårdsveien,,59.7526,10.844607,,,1,,2,,,700
777,NSR:StopPlace:5085,,Grinitajet,,59.879234,11.088295,,,1,,2,,,700
778,NSR:StopPlace:5087,,Kvakestad,,59.736571999999995,10.842367999999999,,,1,,2,,,700
779,NSR:StopPlace:5086,,Langhus senter,,59.75538,10.845461,,,1,,2,,,700
780,NSR:StopPlace:5089,,Måstad,,60.089473999999996,11.235762,,,1,,2,,,700
781,NSR:StopPlace:5088,,Lund,,59.924614,11.072577,,,1,,2,,,700
782,NSR:StopPlace:14990,,Auvi søndre,,59.73758,10.376499,,,1,,2,,,700
783,NSR:StopPlace:14997,,Muserud,,59.73019,10.375278,,,1,,2,,,700
784,NSR:StopPlace:14994,,Luftfartsverket,,59.735744,10.376619,,,1,,2,,,700
785,NSR:StopPlace:14986,,Lingsom,,59.714985,10.488167,,,1,,2,,,700
786,NSR:StopPlace:14981,,Dalebråten bru,,59.72051,10.474203,,,1,,2,,,700
787,NSR:StopPlace:14977,,Hotvet meieri,,59.725452000000004,10.462302000000001,,,1,,2,,,700
788,NSR:StopPlace:14972,,Sagfoss,,59.726727000000004,10.457825999999999,,,1,,2,,,700
789,NSR:StopPlace:6319,,Fayes gate,,59.935226,10.742434,,,1,,2,,,700
790,NSR:StopPlace:6317,,Lindern,,59.93451999999999,10.743701,,,1,,2,,,700
791,NSR:StopPlace:6318,,Holmenkollen,,59.960285,10.662844999999999,,,1,,2,,,401
792,NSR:StopPlace:3290,,Brotno,,60.11492,11.03222,,,1,,2,,,700
793,NSR:StopPlace:3292,,Solbergtoppen,,59.821114,10.682246000000001,,,1,,2,,,700
794,NSR:StopPlace:3291,,Bondi skole,,59.823097,10.435848,,,1,,2,,,700
795,NSR:StopPlace:3294,,Åbyfaret,,59.823837,10.464037,,,1,,2,,,700
796,NSR:StopPlace:3293,,Finstad sameie,,60.112328000000005,11.033866999999999,,,1,,2,,,700
797,NSR:StopPlace:3296,,Sørby,,59.81938,10.6826,,,1,,2,,,700
798,NSR:StopPlace:6323,,John Colletts plass,,59.940365,10.729442,,,1,,2,,,700
799,NSR:StopPlace:3295,,Kringlertoppen,,60.23265,10.9822,,,1,,2,,,700
800,NSR:StopPlace:3298,,Røer gård,,59.81619,10.683891000000001,,,1,,2,,,700
801,NSR:StopPlace:6320,,Voksenlia,,59.966919999999995,10.654795,,,1,,2,,,401
802,NSR:StopPlace:6321,,Skogen,,59.97521999999999,10.647495,,,1,,2,,,401
803,NSR:StopPlace:3297,,Bondibrua,,59.818172,10.439689,,,1,,2,,,700
804,NSR:StopPlace:6326,,Soria Moria,,59.975075,10.656749000000001,,,1,,2,,,700
805,NSR:StopPlace:6327,,John Colletts plass,,59.940323,10.729035000000001,,,1,,2,,,900
806,NSR:StopPlace:3299,,Kringler syd,,60.22845,10.977349,,,1,,2,,,700
807,NSR:StopPlace:6324,,Lillevann,,59.98053,10.652925,,,1,,2,,,401
808,NSR:StopPlace:6325,,Bodung stasjon,,60.085526,11.419982000000001,,,1,,2,,,700
809,NSR:StopPlace:6308,,Ryghs vei,,59.956146,10.662026,,,1,,2,,,700
810,NSR:StopPlace:6309,,Finholt,,60.062836,11.427717999999999,,,1,,2,,,700
811,NSR:StopPlace:6306,,Krags vei,,59.95490600000001,10.666024,,,1,,2,,,700
812,NSR:StopPlace:6307,,Ullevål sykehus,,59.936221999999994,10.732022,,,1,,2,,,900
813,NSR:StopPlace:3281,,Vassbunnsvingen,,59.818504000000004,10.431975,,,1,,2,,,700
814,NSR:StopPlace:3280,,Oksval,,59.85552,10.670283,,,1,,2,,,700
815,NSR:StopPlace:3283,,Korslund,,60.110535,11.049957000000001,,,1,,2,,,700
816,NSR:StopPlace:3282,,Grøndahls vei,,59.85228000000001,10.671551,,,1,,2,,,700
817,NSR:StopPlace:6311,,Besserud,,59.957825,10.673789999999999,,,1,,2,,,401
818,NSR:StopPlace:3285,,Døhlen,,60.112076,11.038680000000001,,,1,,2,,,700
819,NSR:StopPlace:6312,,Vestre Aker kirke,,59.934886999999996,10.728969000000001,,,1,,2,,,700
820,NSR:StopPlace:3284,,Ridderkleiva,,59.82167,10.448029,,,1,,2,,,700
821,NSR:StopPlace:3287,,Bondi sykehjem,,59.822019999999995,10.438361,,,1,,2,,,700
822,NSR:StopPlace:3286,,Dalsbergstien,,59.848328,10.671679,,,1,,2,,,700
823,NSR:StopPlace:3289,,Flateby,,59.826653,10.679442,,,1,,2,,,700
824,NSR:StopPlace:6315,,Besserud T,,59.957462,10.673589,,,1,,2,,,700
825,NSR:StopPlace:3288,,Finstad skole,,60.119217000000006,11.031203999999999,,,1,,2,,,700
826,NSR:StopPlace:6313,,Midtstuen,,59.959483999999996,10.683829,,,1,,2,,,700
827,NSR:StopPlace:6314,,Marienlyst,,59.932274,10.724171,,,1,,2,,,700
828,NSR:StopPlace:5009,,Fjell,,59.78699,10.956868,,,1,,2,,,700
829,NSR:StopPlace:5008,,Romerikssenteret,,60.076733,11.136347,,,1,,2,,,700
830,NSR:StopPlace:6339,,Tveiten gård,,60.07475,11.399962,,,1,,2,,,700
831,NSR:StopPlace:59893,,Sagene,i Kierschows gate,59.937580000000004,10.751064,,,1,,2,,,700
832,NSR:StopPlace:70205,,Tofte skole,,59.540825,10.554530999999999,,,1,,2,,,700
833,NSR:StopPlace:6340,,Universitetet Blindern,,59.942062,10.724783,,,1,,2,,,900
834,NSR:StopPlace:6341,,Bernhard Herres vei,,59.941734,10.681714999999999,,,1,,2,,,700
835,NSR:StopPlace:5010,,Bakkevegen,,60.069542000000006,11.134352,,,1,,2,,,700
836,NSR:StopPlace:6344,,Asker stasjon,i Lensmannslia,59.832848,10.434753,,,1,,2,,,700
837,NSR:StopPlace:5012,,Øvre Hebekk,,59.726925,10.819586,,,1,,2,,,700
838,NSR:StopPlace:5011,,Jessheim vgs (plf. 1),ved skolen,60.146587,11.162662,,,1,,2,,,700
839,NSR:StopPlace:6345,,Holmenenga,,59.948696,10.676283999999999,,,1,,2,,,700
840,NSR:StopPlace:5014,,Statfram,,60.070156000000004,11.126386,,,1,,2,,,700
841,NSR:StopPlace:6342,,Forskningsparken,,59.943726,10.720932000000001,,,1,,2,,,401
842,NSR:StopPlace:5013,,Hilton,,60.063435,11.124409,,,1,,2,,,700
843,NSR:StopPlace:6343,,Holmendammen,,59.944556999999996,10.679982,,,1,,2,,,700
844,NSR:StopPlace:6348,,Gressbanen,,59.95074,10.675175999999999,,,1,,2,,,700
845,NSR:StopPlace:6349,,Eventyrveien,,59.944664,10.731674,,,1,,2,,,700
846,NSR:StopPlace:5015,,Smia,,60.099674,11.139717999999998,,,1,,2,,,700
847,NSR:StopPlace:6346,,Forskningsparken T,,59.943830000000005,10.720880000000001,,,1,,2,,,900
848,NSR:StopPlace:5017,,Vesong ungdomsskole,,60.06998000000001,11.133152,,,1,,2,,,700
849,NSR:StopPlace:6347,,Haugen,,60.071762,11.397093,,,1,,2,,,700
850,NSR:StopPlace:6328,,Lysebu,,59.979164000000004,10.660758999999999,,,1,,2,,,700
851,NSR:StopPlace:6329,,Ullevålsalléen,,59.937943000000004,10.730183,,,1,,2,,,700
852,NSR:StopPlace:16790,,Lahelldammen,,59.72659,10.313928,,,1,,2,,,700
853,NSR:StopPlace:59880,,Sveiva,i Fossumveien,59.963283999999994,10.903597999999999,,,1,,2,,,700
854,NSR:StopPlace:60878,,Faldalsveien,,59.929462,11.165341,,,1,,2,,,700
855,NSR:StopPlace:6330,,Voksenkollen T,,59.980169999999994,10.663861,,,1,,2,,,700
856,NSR:StopPlace:6333,,Voksenkollen,,59.980059999999995,10.665325,,,1,,2,,,401
857,NSR:StopPlace:5001,,Kløfta stasjon,,60.07493,11.138586,,,1,,2,,,700
858,NSR:StopPlace:6334,,Thorleif Haugs vei,,59.969947999999995,10.669450999999999,,,1,,2,,,700
859,NSR:StopPlace:5000,,Øvre Hebekk barnehage,,59.72575,10.819576,,,1,,2,,,700
860,NSR:StopPlace:6331,,Klodsbodding kapell,,60.081590000000006,11.414956,,,1,,2,,,700
861,NSR:StopPlace:5003,,Bakke,,60.066853,11.133163,,,1,,2,,,700
862,NSR:StopPlace:5002,,Industriveien,,59.71256999999999,10.855766000000001,,,1,,2,,,700
863,NSR:StopPlace:6332,,Blindern,,59.94015,10.716095,,,1,,2,,,401
864,NSR:StopPlace:5005,,Løkkåsveien,,59.713806000000005,10.847737,,,1,,2,,,700
865,NSR:StopPlace:6338,,Makrellbekken,,59.941869999999994,10.67263,,,1,,2,,,700
866,NSR:StopPlace:60877,,Engerkleiva,,59.93416,11.155602,,,1,,2,,,700
867,NSR:StopPlace:5004,,Trøgstad,,60.124880000000005,11.154666,,,1,,2,,,700
868,NSR:StopPlace:5007,,Folkets hus,,59.717631999999995,10.815997,,,1,,2,,,700
869,NSR:StopPlace:6336,,Makrellbekken,,59.941704,10.673855,,,1,,2,,,401
870,NSR:StopPlace:5006,,Legesentret,,60.071746999999995,11.13844,,,1,,2,,,700
871,NSR:StopPlace:16780,,Røykenveien 49,,59.7334,10.3045,,,1,,2,,,700
872,NSR:StopPlace:16787,,Lahellkrysset,,59.727819999999994,10.312961999999999,,,1,,2,,,700
873,NSR:StopPlace:16785,,Engersand,,59.72965,10.30995,,,1,,2,,,700
874,NSR:StopPlace:6362,,Hovseter T,,59.9464,10.655892999999999,,,1,,2,,,700
875,NSR:StopPlace:5030,,Nybrottveien vest,,59.72514,10.813713,,,1,,2,,,700
876,NSR:StopPlace:6363,,Sagene,i Uelands gate,59.93793,10.750003,,,1,,2,,,700
877,NSR:StopPlace:6360,,Hovseter,,59.94639599999999,10.65514,,,1,,2,,,401
878,NSR:StopPlace:5031,,Fløtten,,60.228159999999995,11.151204,,,1,,2,,,700
879,NSR:StopPlace:6366,,Voldsløkka,,59.940490000000004,10.750207000000001,,,1,,2,,,700
880,NSR:StopPlace:5034,,Fløgstad,,60.219719999999995,11.140957,,,1,,2,,,700
881,NSR:StopPlace:5033,,Lund skole,,60.10135699999999,11.261777,,,1,,2,,,700
882,NSR:StopPlace:6367,,Hovseterhjemmet,,59.95115,10.657009,,,1,,2,,,700
883,NSR:StopPlace:5036,,Sætreringen,,60.238842000000005,11.200319,,,1,,2,,,700
884,NSR:StopPlace:6364,,Esval,,60.175906999999995,11.41962,,,1,,2,,,700
885,NSR:StopPlace:6365,,Hovseter skole,,59.949496999999994,10.65654,,,1,,2,,,700
886,NSR:StopPlace:5038,,Wethal,,60.094074,11.283513000000001,,,1,,2,,,700
887,NSR:StopPlace:5037,,Linjeveien,,59.711277,10.835332000000001,,,1,,2,,,700
888,NSR:StopPlace:6368,,Orebakken,,59.9538,10.656997,,,1,,2,,,700
889,NSR:StopPlace:6369,,Bjølsen,,59.9426,10.75965,,,1,,2,,,700
890,NSR:StopPlace:5039,,Finstadtunet,,59.708153,10.840697,,,1,,2,,,700
891,NSR:StopPlace:5019,,Isingrudkrysset,,60.06483000000001,11.147002,,,1,,2,,,700
892,NSR:StopPlace:16771,,Gullaug,,59.7488,10.2909,,,1,,2,,,700
893,NSR:StopPlace:16777,,Karlseberget,,59.7369,10.302999999999999,,,1,,2,,,700
894,NSR:StopPlace:16775,,Gullaugkleiva,,59.744232,10.299574,,,1,,2,,,700
895,NSR:StopPlace:6351,,Domus Athletica,,59.94744,10.721936999999999,,,1,,2,,,700
896,NSR:StopPlace:6352,,Arnebråtveien,,59.95089300000001,10.665461,,,1,,2,,,700
897,NSR:StopPlace:5021,,Trandum,,60.212219999999995,11.119417,,,1,,2,,,700
898,NSR:StopPlace:6350,,Holmen,,59.945866,10.667782,,,1,,2,,,401
899,NSR:StopPlace:6355,,Arkitekt Rivertz plass,,59.934334,10.749787,,,1,,2,,,700
900,NSR:StopPlace:5023,,Granly,,59.72734499999999,10.81645,,,1,,2,,,700
901,NSR:StopPlace:5022,,Nybakk,,60.123314,11.303188,,,1,,2,,,700
902,NSR:StopPlace:6356,,Framtun skole,,60.060253,11.409868,,,1,,2,,,700
903,NSR:StopPlace:5025,,Slettaveien,,59.722640000000006,10.814031,,,1,,2,,,700
904,NSR:StopPlace:5024,,Majorseter,,60.233215,11.212994,,,1,,2,,,700
905,NSR:StopPlace:6354,,Amagerveien,,59.952496,10.660875,,,1,,2,,,700
906,NSR:StopPlace:6359,,Huseby skole,,59.945080000000004,10.655737,,,1,,2,,,700
907,NSR:StopPlace:5027,,Myrveien Øvre,,59.726459999999996,10.81361,,,1,,2,,,700
908,NSR:StopPlace:5026,,Flystasjonvegen,,60.208659999999995,11.114305,,,1,,2,,,700
909,NSR:StopPlace:5029,,Østli,,60.232009999999995,11.155334,,,1,,2,,,700
910,NSR:StopPlace:6358,,Vøyenbrua,,59.93289,10.758550999999999,,,1,,2,,,700
911,NSR:StopPlace:5028,,Langbakk,,60.113705,11.288729,,,1,,2,,,700
912,NSR:StopPlace:6380,,Kristoffer Aamots bro,,59.946884,10.764163,,,1,,2,,,700
913,NSR:StopPlace:6381,,Røa,,59.946774,10.643831,,,1,,2,,,401
914,NSR:StopPlace:5050,,Nafstad,,60.09064,11.221113,,,1,,2,,,700
915,NSR:StopPlace:6384,,Torshov,i Hegermanns gate,59.93512,10.764418,,,1,,2,,,700
916,NSR:StopPlace:5052,,Furulund,,59.938904,11.133244,,,1,,2,,,700
917,NSR:StopPlace:5051,,Hanakropp,,59.653736,10.940895,,,1,,2,,,700
918,NSR:StopPlace:6383,,Røa T,,59.947586,10.643118,,,1,,2,,,700
919,NSR:StopPlace:5053,,Skotbu,,59.665092,10.946784,,,1,,2,,,700
920,NSR:StopPlace:5056,,Gjevikbakkene,,59.778580000000005,10.924656,,,1,,2,,,700
921,NSR:StopPlace:6388,,Kristian Auberts vei,,59.941402000000004,10.641283,,,1,,2,,,700
922,NSR:StopPlace:6389,,Torshovparken,,59.93334599999999,10.768972999999999,,,1,,2,,,700
923,NSR:StopPlace:5055,,Holum,,60.092319999999994,11.137298,,,1,,2,,,700
924,NSR:StopPlace:5058,,Gjevikveien,,59.78074,10.939779,,,1,,2,,,700
925,NSR:StopPlace:6386,,Helsesenteret,,60.120743000000004,11.477432,,,1,,2,,,700
926,NSR:StopPlace:5057,,Foss,,59.93339,11.133917,,,1,,2,,,700
927,NSR:StopPlace:6387,,Vogts gate,,59.9317,10.763158,,,1,,2,,,700
928,NSR:StopPlace:5059,,Furukollen,,59.941419999999994,11.155042,,,1,,2,,,700
929,NSR:StopPlace:6373,,Ostadalsveien,,59.94565,10.647867999999999,,,1,,2,,,700
930,NSR:StopPlace:5041,,Ellingsrudlia,,59.705906000000006,10.847128999999999,,,1,,2,,,700
931,NSR:StopPlace:6374,,Arendalsgata,,59.937435,10.758619,,,1,,2,,,700
932,NSR:StopPlace:5043,,Vardekrysset,,60.240883,11.19484,,,1,,2,,,700
933,NSR:StopPlace:6371,,Nyhus,,60.18419599999999,11.418586999999999,,,1,,2,,,700
934,NSR:StopPlace:5042,,Korslund,,60.17909,11.215845,,,1,,2,,,700
935,NSR:StopPlace:6372,,Advokat Dehlis plass,,59.939053,10.759246000000001,,,1,,2,,,700
936,NSR:StopPlace:6377,,Røa næringspark,,59.9414,10.649204,,,1,,2,,,700
937,NSR:StopPlace:5045,,Furuveien,,59.71075,10.843711,,,1,,2,,,700
938,NSR:StopPlace:5044,,Snippen,,60.0913,11.250403,,,1,,2,,,700
939,NSR:StopPlace:6378,,Vormlia,,60.15846,11.420897,,,1,,2,,,700
940,NSR:StopPlace:5047,,Røys,,59.660059999999994,10.943141,,,1,,2,,,700
941,NSR:StopPlace:6375,,Aslakveien,,59.942657,10.647047,,,1,,2,,,700
942,NSR:StopPlace:5046,,Hauerseter stasjon,,60.18711,11.196442,,,1,,2,,,700
943,NSR:StopPlace:6376,,Badebakken,,59.945744,10.760213,,,1,,2,,,700
944,NSR:StopPlace:5049,,Vinsnes,i Fetveien,59.94151,11.118775999999999,,,1,,2,,,700
945,NSR:StopPlace:6379,,Ullerntoppen,,59.93869399999999,10.648217,,,1,,2,,,700
946,NSR:StopPlace:4899,,Asmyr,,60.051469999999995,11.047145,,,1,,2,,,700
947,NSR:StopPlace:3568,,Jerpeleina,,59.779125,10.801444,,,1,,2,,,700
948,NSR:StopPlace:4898,,Fjellstaddalen,,60.057446,11.042327,,,1,,2,,,700
949,NSR:StopPlace:3567,,Snathauglia,,60.25376,11.088356,,,1,,2,,,700
950,NSR:StopPlace:3569,,Brangerud,,59.833874,11.485388,,,1,,2,,,700
951,NSR:StopPlace:3571,,Greverud kirke,,59.774662,10.80423,,,1,,2,,,700
952,NSR:StopPlace:3570,,Grasmogrenda nord,,60.235485,11.085479,,,1,,2,,,700
953,NSR:StopPlace:3573,,Grasmogrenda,,60.231705000000005,11.080388000000001,,,1,,2,,,700
954,NSR:StopPlace:3572,,Garsvik,,59.845496999999995,11.496969,,,1,,2,,,700
955,NSR:StopPlace:3575,,Skogheim,,59.706398,11.535219,,,1,,2,,,700
956,NSR:StopPlace:6601,,Velhuset,,60.00515,10.773994,,,1,,2,,,700
957,NSR:StopPlace:3574,,Greverud stasjon,,59.770786,10.807277000000001,,,1,,2,,,700
958,NSR:StopPlace:6602,,Hauger,,60.008340000000004,10.776056,,,1,,2,,,700
959,NSR:StopPlace:3577,,Greverud skole,,59.768738,10.811283999999999,,,1,,2,,,700
960,NSR:StopPlace:3576,,Grantun,,60.226290000000006,11.080409,,,1,,2,,,700
961,NSR:StopPlace:3557,,Kingsrud,,59.827625,11.506323,,,1,,2,,,700
962,NSR:StopPlace:4888,,Flatner,,60.032036,11.045084,,,1,,2,,,700
963,NSR:StopPlace:4887,,Grønslett,,59.797943000000004,10.882833999999999,,,1,,2,,,700
964,NSR:StopPlace:3556,,Blåbærskogen,,59.786827,10.812097,,,1,,2,,,700
965,NSR:StopPlace:3559,,Østli,,59.78674300000001,10.806949000000001,,,1,,2,,,700
966,NSR:StopPlace:4889,,Siggerud gård,,59.796078,10.884913000000001,,,1,,2,,,700
967,NSR:StopPlace:3558,,Snathaugen,,60.25323,11.083084,,,1,,2,,,700
968,NSR:StopPlace:3560,,Rud,,59.866375,11.530398,,,1,,2,,,700
969,NSR:StopPlace:4891,,Gjerdrum ungdomsskole,,60.072414,11.026821,,,1,,2,,,700
970,NSR:StopPlace:4890,,Oppen,,60.103573,11.204963000000001,,,1,,2,,,700
971,NSR:StopPlace:4893,,Siggerud,,59.79127,10.888862,,,1,,2,,,700
972,NSR:StopPlace:4892,,Ask terminal,,60.071999999999996,11.034487,,,1,,2,,,700
973,NSR:StopPlace:3561,,Sørmoen,,60.249233,11.095312,,,1,,2,,,700
974,NSR:StopPlace:3564,,Grasmo,,60.236458,11.090434,,,1,,2,,,700
975,NSR:StopPlace:4895,,Major O. Laakes veg,,60.15359,11.1577,,,1,,2,,,700
976,NSR:StopPlace:3563,,Klava gård,,59.83724,11.5159,,,1,,2,,,700
977,NSR:StopPlace:4894,,Siggerud sentrum,,59.790943000000006,10.881713000000001,,,1,,2,,,700
978,NSR:StopPlace:4897,,Tangenhagen,,59.787130000000005,10.893169,,,1,,2,,,700
979,NSR:StopPlace:3566,,Klava skole,,59.836906000000006,11.520973,,,1,,2,,,700
980,NSR:StopPlace:4896,,Nystuen,,60.06531,11.040889,,,1,,2,,,700
981,NSR:StopPlace:3565,,Myrvoll stasjon,,59.787266,10.802472999999999,,,1,,2,,,700
982,NSR:StopPlace:6616,,Rugda,,60.01485400000001,10.7726,,,1,,2,,,700
983,NSR:StopPlace:3589,,Solliveien,,59.913837,10.632783,,,1,,2,,,700
984,NSR:StopPlace:6617,,Turtermarka,,60.009315,10.766138,,,1,,2,,,700
985,NSR:StopPlace:6614,,Ulvøya,,59.870354000000006,10.773214,,,1,,2,,,700
986,NSR:StopPlace:6618,,Holtet,,59.882343000000006,10.783145,,,1,,2,,,900
987,NSR:StopPlace:6619,,Togstadhagen,,60.226000000000006,11.560364,,,1,,2,,,700
988,NSR:StopPlace:60802,,Christiania torv,,59.910121999999994,10.739484,,,1,,2,,,700
989,NSR:StopPlace:3591,,Bevervegen,,60.224106000000006,11.036467,,,1,,2,,,700
990,NSR:StopPlace:3590,,Killingmoverket,,59.950417,11.390046,,,1,,2,,,700
991,NSR:StopPlace:3593,,Finstadbru,,59.94095,11.431971,,,1,,2,,,700
992,NSR:StopPlace:3592,,Marstranderveien,,59.915775,10.630718,,,1,,2,,,700
993,NSR:StopPlace:6620,,Maridalen skole,,60.0047,10.7631,,,1,,2,,,700
994,NSR:StopPlace:3595,,Lillengveien,,59.918544999999995,10.628682000000001,,,1,,2,,,700
995,NSR:StopPlace:3594,,Preståsen skoleplass,,60.22265,11.025644,,,1,,2,,,700
996,NSR:StopPlace:3597,,Preståsen skole,,60.222145,11.026206,,,1,,2,,,700
997,NSR:StopPlace:6623,,Åsliveien,,59.87965,10.790481,,,1,,2,,,700
998,NSR:StopPlace:3596,,Steinbakkholtet,,59.94473299999999,11.420421000000001,,,1,,2,,,700
999,NSR:StopPlace:6624,,Granum,,60.02151,10.785385,,,1,,2,,,700
1000,NSR:StopPlace:3599,,Borstad,,59.950509999999994,11.447913,,,1,,2,,,700
1001,NSR:StopPlace:3598,,Jar skole,i Vollsveien,59.920967000000005,10.625896000000001,,,1,,2,,,700
1002,NSR:StopPlace:6622,,Øvre Vaggestein,,60.023990000000005,10.784409,,,1,,2,,,700
1003,NSR:StopPlace:3579,,Bjørke kirke,,60.235381999999994,11.012994,,,1,,2,,,700
1004,NSR:StopPlace:6605,,Turterfaret,,60.01336,10.779067999999999,,,1,,2,,,700
1005,NSR:StopPlace:6606,,Nedre Bekkelaget,,59.881159999999994,10.772909,,,1,,2,,,700
1006,NSR:StopPlace:3578,,Harkerud veikryss,,59.945857999999994,11.370656,,,1,,2,,,700
1007,NSR:StopPlace:6603,,Bekkelagsveien,,59.884262,10.769203,,,1,,2,,,700
1008,NSR:StopPlace:6604,,Åsvangen,,60.21305,11.564010000000001,,,1,,2,,,700
1009,NSR:StopPlace:6609,,Sandermosveien,,60.019397999999995,10.786453,,,1,,2,,,700
1010,NSR:StopPlace:6607,,Brodin,,60.016174,10.782461,,,1,,2,,,700
1011,NSR:StopPlace:59806,,Heimdalsgata,i Heimdalsgata,59.91823,10.761942,,,1,,2,,,700
1012,NSR:StopPlace:3580,,Oppegård stasjon,,59.765076,10.812166,,,1,,2,,,700
1013,NSR:StopPlace:3582,,Linderud,,60.230335,11.011746,,,1,,2,,,700
1014,NSR:StopPlace:3581,,Vestlia,,59.947254,11.358771,,,1,,2,,,700
1015,NSR:StopPlace:3584,,Bakkelittfabrikken,,59.92559,11.502467999999999,,,1,,2,,,700
1016,NSR:StopPlace:3583,,Rosenholm stasjon,,59.822685,10.79622,,,1,,2,,,700
1017,NSR:StopPlace:6612,,Nordli,,60.220974,11.558957000000001,,,1,,2,,,700
1018,NSR:StopPlace:3586,,Lysaker brygge,,59.911343,10.641556,,,1,,2,,,1000
1019,NSR:StopPlace:3585,,Bahusvegen,,60.22376,11.014704,,,1,,2,,,700
1020,NSR:StopPlace:6613,,Skarsbakken,,60.020219999999995,10.777784,,,1,,2,,,700
1021,NSR:StopPlace:6610,,Ulvøybrua,,59.873264,10.779247999999999,,,1,,2,,,700
1022,NSR:StopPlace:3588,,Moreppen,,60.22129,11.080028,,,1,,2,,,700
1023,NSR:StopPlace:3587,,Killingmo,,59.945609999999995,11.40542,,,1,,2,,,700
1024,NSR:StopPlace:6611,,Skar,,60.026782999999995,10.779667,,,1,,2,,,700
1025,NSR:StopPlace:6638,,Grefsenkollen,,59.95870600000001,10.804052,,,1,,2,,,700
1026,NSR:StopPlace:5306,,Fløyspjell,,59.71994399999999,10.723799,,,1,,2,,,700
1027,NSR:StopPlace:6639,,Trollvann,,59.96155,10.80322,,,1,,2,,,700
1028,NSR:StopPlace:5305,,Durud,,59.757626,10.997931,,,1,,2,,,700
1029,NSR:StopPlace:5308,,Brønnerud skole,,59.663376,10.749428,,,1,,2,,,700
1030,NSR:StopPlace:6636,,Idrettsplassen,,60.181194,11.523786999999999,,,1,,2,,,700
1031,NSR:StopPlace:6637,,Mailand,,59.88006600000001,10.765357,,,1,,2,,,700
1032,NSR:StopPlace:5307,,Fjellstad,,59.754375,11.000803,,,1,,2,,,700
1033,NSR:StopPlace:5309,,Bakken,,59.751152000000005,11.003728,,,1,,2,,,700
1034,NSR:StopPlace:59832,,Tinghuset,,59.91529,10.74126,,,1,,2,,,700
1035,NSR:StopPlace:6642,,Simensbråten,,59.895554000000004,10.786951,,,1,,2,,,700
1036,NSR:StopPlace:6640,,Ormsundbakken,,59.88169499999999,10.770172,,,1,,2,,,700
1037,NSR:StopPlace:5310,,Brudalen,,60.170773,11.100558,,,1,,2,,,700
1038,NSR:StopPlace:6645,,Lyngveien,,59.897415,10.792622999999999,,,1,,2,,,700
1039,NSR:StopPlace:5313,,Råken,,59.738705,11.008691,,,1,,2,,,700
1040,NSR:StopPlace:5312,,Råkendalen,,59.74411,11.007933,,,1,,2,,,700
1041,NSR:StopPlace:5315,,Omberg,,59.810448,11.180309,,,1,,2,,,700
1042,NSR:StopPlace:5314,,Nyveien,,59.66111,10.738126,,,1,,2,,,700
1043,NSR:StopPlace:60820,,Kleiverveien,,59.75716800000001,10.401193,,,1,,2,,,700
1044,NSR:StopPlace:6644,,Hunstadvegen,,60.174130000000005,11.494752,,,1,,2,,,700
1045,NSR:StopPlace:6627,,Bekkelagshjemmet,,59.885490000000004,10.785035,,,1,,2,,,700
1046,NSR:StopPlace:6628,,Funnefossvegen,,60.18354,11.530302,,,1,,2,,,700
1047,NSR:StopPlace:6626,,Solemskogen,,59.979305000000004,10.817611999999999,,,1,,2,,,700
1048,NSR:StopPlace:6629,,Kalland,,59.978497,10.814337,,,1,,2,,,700
1049,NSR:StopPlace:6630,,Malmøya,,59.873352000000004,10.758061,,,1,,2,,,700
1050,NSR:StopPlace:6631,,Linderudkollen,,59.97645,10.810871,,,1,,2,,,700
1051,NSR:StopPlace:5300,,Borud,,59.70004300000001,11.196891,,,1,,2,,,700
1052,NSR:StopPlace:6634,,Kirkebakken,,59.87835,10.764173,,,1,,2,,,700
1053,NSR:StopPlace:5302,,Landskaug,,59.763897,10.992939999999999,,,1,,2,,,700
1054,NSR:StopPlace:5301,,Bekkstrand,,59.723369999999996,10.729249000000001,,,1,,2,,,700
1055,NSR:StopPlace:6635,,Kringlevann,,59.97646700000001,10.803697,,,1,,2,,,700
1056,NSR:StopPlace:6632,,Malmøysundet,,59.87463399999999,10.759924,,,1,,2,,,700
1057,NSR:StopPlace:5304,,Nordre Brudalen,,60.175354000000006,11.092842999999998,,,1,,2,,,700
1058,NSR:StopPlace:5303,,Bekkevold,,59.719722999999995,10.728852,,,1,,2,,,700
1059,NSR:StopPlace:6633,,Setervollveien,,59.977264,10.806716,,,1,,2,,,700
1060,NSR:StopPlace:5328,,Sand,,60.155186,11.126764999999999,,,1,,2,,,700
1061,NSR:StopPlace:15398,,Fjordhuset,,59.61355,10.4214,,,1,,2,,,700
1062,NSR:StopPlace:5327,,Stranden skole,,59.821728,11.163477,,,1,,2,,,700
1063,NSR:StopPlace:15395,,Bogen,,59.61285,10.435880000000001,,,1,,2,,,700
1064,NSR:StopPlace:6658,,Brattlikollen T,,59.8864,10.800183,,,1,,2,,,700
1065,NSR:StopPlace:6659,,Nordstrand bad,,59.866528,10.783292999999999,,,1,,2,,,700
1066,NSR:StopPlace:5329,,Sundby,,59.824493000000004,11.160103999999999,,,1,,2,,,700
1067,NSR:StopPlace:15392,,Bråtakroken,,59.618324,10.450871000000001,,,1,,2,,,700
1068,NSR:StopPlace:6660,,Vølund,,59.860744,10.785292,,,1,,2,,,700
1069,NSR:StopPlace:5331,,Skoftestad,,59.656445,10.694239999999999,,,1,,2,,,700
1070,NSR:StopPlace:6663,,Ljansbakken,,59.850894999999994,10.781692,,,1,,2,,,700
1071,NSR:StopPlace:4000,,Jernbanetorget,foran Oslo S,59.911593999999994,10.750103,,,1,,2,,,700
1072,NSR:StopPlace:6664,,Gladvollveien,,59.84819,10.778714,,,1,,2,,,700
1073,NSR:StopPlace:5330,,Gjeddevannsveien,,59.836113,11.128876,,,1,,2,,,700
1074,NSR:StopPlace:4002,,Gjettum skole,,59.907433,10.5334,,,1,,2,,,700
1075,NSR:StopPlace:6661,,Lindal,,60.224155,11.513038,,,1,,2,,,700
1076,NSR:StopPlace:5333,,Rødskrysset,,59.631924,10.831411,,,1,,2,,,700
1077,NSR:StopPlace:4001,,Verket,,59.71349,11.555425999999999,,,1,,2,,,700
1078,NSR:StopPlace:6662,,Katten,,59.85535,10.784458,,,1,,2,,,700
1079,NSR:StopPlace:5332,,Myhra,,59.73214,11.117078999999999,,,1,,2,,,700
1080,NSR:StopPlace:4004,,Jernbanetorget,foran Oslo S,59.911559999999994,10.750063,,,1,,2,,,900
1081,NSR:StopPlace:5335,,Gran,,59.77154,10.984661000000001,,,1,,2,,,700
1082,NSR:StopPlace:6667,,Siksakveien,,59.85479,10.785469,,,1,,2,,,700
1083,NSR:StopPlace:6668,,Sørli,,59.87489300000001,10.787151,,,1,,2,,,900
1084,NSR:StopPlace:4003,,Pavestad syd,,59.68639,11.539804,,,1,,2,,,700
1085,NSR:StopPlace:5334,,Gardermoen Næringspark,,60.166035,11.154548,,,1,,2,,,700
1086,NSR:StopPlace:4006,,Granli,,59.66301,11.556396000000001,,,1,,2,,,700
1087,NSR:StopPlace:6665,,Skogbygda mat,,60.229240000000004,11.511992999999999,,,1,,2,,,700
1088,NSR:StopPlace:5337,,Topper vestre,,59.60128,10.829246000000001,,,1,,2,,,700
1089,NSR:StopPlace:4005,,Gjettumtunet,,59.90585,10.529639,,,1,,2,,,700
1090,NSR:StopPlace:6666,,Fiskevollen,,59.840656,10.778734,,,1,,2,,,700
1091,NSR:StopPlace:5336,,Kjellås,,59.736233,11.024053,,,1,,2,,,700
1092,NSR:StopPlace:5317,,Vennersgård,,59.653682999999994,10.704525,,,1,,2,,,700
1093,NSR:StopPlace:5316,,Tronstuløkka,,60.164646,11.108504,,,1,,2,,,700
1094,NSR:StopPlace:5319,,Haug,,59.65934,10.726022,,,1,,2,,,700
1095,NSR:StopPlace:15385,,Hurum kirke,,59.613724,10.457737,,,1,,2,,,700
1096,NSR:StopPlace:6648,,Benveien,,59.897514,10.797096,,,1,,2,,,700
1097,NSR:StopPlace:5318,,Hagen,,59.80608,11.182798,,,1,,2,,,700
1098,NSR:StopPlace:15382,,Ugstadtoppen,,59.623814,10.474453,,,1,,2,,,700
1099,NSR:StopPlace:59844,,Trosterudkrysset,i Nedre Kalbakkvei,59.929462,10.865584,,,1,,2,,,700
1100,NSR:StopPlace:59846,,Jar skole,i Storengveien,59.920432999999996,10.625651,,,1,,2,,,700
1101,NSR:StopPlace:15389,,Bråtan,,59.615704,10.453035,,,1,,2,,,700
1102,NSR:StopPlace:5320,,Fløtten,,59.80220799999999,11.183974000000001,,,1,,2,,,700
1103,NSR:StopPlace:6652,,Frognerstrand,,60.176666000000004,11.502721000000001,,,1,,2,,,700
1104,NSR:StopPlace:6653,,Karlsrud,,59.880669999999995,10.805285000000001,,,1,,2,,,401
1105,NSR:StopPlace:6650,,Oluf Onsums vei,,59.89558,10.801907,,,1,,2,,,700
1106,NSR:StopPlace:5322,,Gjestang,,59.816340000000004,11.175892,,,1,,2,,,700
1107,NSR:StopPlace:5321,,Holstad gård,,59.658443000000005,10.715354,,,1,,2,,,700
1108,NSR:StopPlace:6651,,Ekeberg hageby,,59.897372999999995,10.781507000000001,,,1,,2,,,700
1109,NSR:StopPlace:5324,,Vennersgård nord,,59.657574,10.708269,,,1,,2,,,700
1110,NSR:StopPlace:6656,,Skogbygda skole,,60.228905000000005,11.514705000000001,,,1,,2,,,700
1111,NSR:StopPlace:6657,,Brattlikollen,,59.88738000000001,10.801051,,,1,,2,,,401
1112,NSR:StopPlace:5323,,Hannestad,,60.15969499999999,11.118018,,,1,,2,,,700
1113,NSR:StopPlace:5326,,Kroer kirke,,59.638332,10.847111,,,1,,2,,,700
1114,NSR:StopPlace:6654,,Karlsrud,,59.87971999999999,10.801063000000001,,,1,,2,,,700
1115,NSR:StopPlace:5325,,Sikkebøl,,59.81920600000001,11.169467,,,1,,2,,,700
1116,NSR:StopPlace:6655,,Skogholtveien,,59.879856000000004,10.796414,,,1,,2,,,700
1117,NSR:StopPlace:4811,,Herzeth,,60.127113,10.816684,,,1,,2,,,700
1118,NSR:StopPlace:4810,,Herregårdshuset sykehjem,,60.24119,11.192967999999999,,,1,,2,,,700
1119,NSR:StopPlace:4813,,Elnesveien,,60.13150400000001,10.811421000000001,,,1,,2,,,700
1120,NSR:StopPlace:4812,,Sætreveien,,59.712627000000005,10.839882000000001,,,1,,2,,,700
1121,NSR:StopPlace:4815,,Mogreina skole,,60.228764,11.16727,,,1,,2,,,700
1122,NSR:StopPlace:4814,,Leikvollen,,59.714317,10.838173,,,1,,2,,,700
1123,NSR:StopPlace:4817,,Regnbuen,,59.76826,10.841508000000001,,,1,,2,,,700
1124,NSR:StopPlace:4816,,Kongskog,,60.13344,10.811065,,,1,,2,,,700
1125,NSR:StopPlace:4819,,Snipetjernveien,,59.770984999999996,10.846617,,,1,,2,,,700
1126,NSR:StopPlace:14963,,Husebysvingen,,59.732525,10.443146,,,1,,2,,,700
1127,NSR:StopPlace:4818,,Rulse,,60.09014499999999,10.879480000000001,,,1,,2,,,700
1128,NSR:StopPlace:14967,,Krokodden,,59.73,10.44773,,,1,,2,,,700
1129,NSR:StopPlace:4820,,Elstad sykehjem,,60.207283,11.150252,,,1,,2,,,700
1130,NSR:StopPlace:4800,,Sagstua,,60.117656999999994,10.836958000000001,,,1,,2,,,700
1131,NSR:StopPlace:4802,,Frogner,,59.68934,10.864448,,,1,,2,,,700
1132,NSR:StopPlace:4801,,Ekornrud,,60.130047,11.240174,,,1,,2,,,700
1133,NSR:StopPlace:4804,,Bråte,,59.686009999999996,10.868925,,,1,,2,,,700
1134,NSR:StopPlace:4803,,Hakadal stasjon,,60.117644999999996,10.829378,,,1,,2,,,700
1135,NSR:StopPlace:4806,,Mogreinakrysset,,60.231964000000005,11.175844999999999,,,1,,2,,,700
1136,NSR:StopPlace:4805,,Hakadals verk,,60.12141,10.824046000000001,,,1,,2,,,700
1137,NSR:StopPlace:14953,,Villingstadveien,,59.73570600000001,10.434364,,,1,,2,,,700
1138,NSR:StopPlace:4808,,Haug,,60.12518299999999,10.821089,,,1,,2,,,700
1139,NSR:StopPlace:4807,,Høysletta,,59.706013,10.844365,,,1,,2,,,700
1140,NSR:StopPlace:4809,,Frogner nordre,,59.693672,10.859957000000001,,,1,,2,,,700
1141,NSR:StopPlace:14958,,Ølstadveien øst,,59.734519999999996,10.438951,,,1,,2,,,700
1142,NSR:StopPlace:4833,,Kirkerud,,60.111065,10.867269,,,1,,2,,,700
1143,NSR:StopPlace:3501,,Røtterud,,60.198154,10.962657,,,1,,2,,,700
1144,NSR:StopPlace:4832,,Jettegryta,,59.763275,10.84688,,,1,,2,,,700
1145,NSR:StopPlace:4835,,Tøyen,,60.112904,10.861655,,,1,,2,,,700
1146,NSR:StopPlace:3504,,Låke,,60.208040000000004,10.998623,,,1,,2,,,700
1147,NSR:StopPlace:3503,,Frøyas vei,,59.804092000000004,10.812489,,,1,,2,,,700
1148,NSR:StopPlace:4834,,Bregnefaret,,59.76396,10.850608,,,1,,2,,,700
1149,NSR:StopPlace:4837,,Bøleråsen,,59.767047999999996,10.866861,,,1,,2,,,700
1150,NSR:StopPlace:3506,,Kolbotn skole,,59.811873999999996,10.804136999999999,,,1,,2,,,700
1151,NSR:StopPlace:4836,,Mogreina,,60.227917000000005,11.167295,,,1,,2,,,700
1152,NSR:StopPlace:3508,,Ødegården,,59.802009999999996,10.818783,,,1,,2,,,700
1153,NSR:StopPlace:4839,,Midtsjø,,59.726475,10.884649000000001,,,1,,2,,,700
1154,NSR:StopPlace:4838,,Tøyenhaugen,,60.11461,10.858922999999999,,,1,,2,,,700
1155,NSR:StopPlace:3507,,Sofiemyr senter,,59.802597,10.816636,,,1,,2,,,700
1156,NSR:StopPlace:3509,,Nannestad torg,,60.219756999999994,11.013437,,,1,,2,,,700
1157,NSR:StopPlace:14944,,Slemmestad,,59.779109999999996,10.486123,,,1,,2,,,700
1158,NSR:StopPlace:14948,,Toern,,59.782173,10.488226,,,1,,2,,,700
1159,NSR:StopPlace:4840,,Elstadmoen,,60.221534999999996,11.164531,,,1,,2,,,700
1160,NSR:StopPlace:3511,,Jotunveien,,59.80509,10.816825999999999,,,1,,2,,,700
1161,NSR:StopPlace:4842,,Nordre Midtsjø,,59.731173999999996,10.891972,,,1,,2,,,700
1162,NSR:StopPlace:4841,,Grønvold,,60.116882,10.854363000000001,,,1,,2,,,700
1163,NSR:StopPlace:4822,,Bøleråsen skole,,59.763927,10.855874,,,1,,2,,,700
1164,NSR:StopPlace:4821,,Staven,,60.090396999999996,10.887821,,,1,,2,,,700
1165,NSR:StopPlace:4824,,Blåklokkelia,,59.76558000000001,10.866846,,,1,,2,,,700
1166,NSR:StopPlace:4823,,Breidablikk,,60.09265,10.886517,,,1,,2,,,700
1167,NSR:StopPlace:4826,,Gunhildstua,,60.09488,10.884258,,,1,,2,,,700
1168,NSR:StopPlace:4825,,Melbykrysset,,60.21688,11.13803,,,1,,2,,,700
1169,NSR:StopPlace:4828,,Kirkeby skole,,60.099495,10.881396,,,1,,2,,,700
1170,NSR:StopPlace:4827,,Blåbærveien,,59.762122999999995,10.861557000000001,,,1,,2,,,700
1171,NSR:StopPlace:4829,,Kløversvingen,,59.761219999999994,10.845432,,,1,,2,,,700
1172,NSR:StopPlace:14933,,Åros brygge,,59.7029,10.519,,,1,,2,,,700
1173,NSR:StopPlace:14938,,Beston,,59.690224,10.515576,,,1,,2,,,700
1174,NSR:StopPlace:4831,,Klokkertoppen,,60.10699,10.875275,,,1,,2,,,700
1175,NSR:StopPlace:3500,,Nordberg,,59.80603000000001,10.80603,,,1,,2,,,700
1176,NSR:StopPlace:4830,,Kloppeløkken,,60.204987,11.165626,,,1,,2,,,700
1177,NSR:StopPlace:4855,,Nygård,,60.19283000000001,11.174838000000001,,,1,,2,,,700
1178,NSR:StopPlace:3524,,Tårnåsen,,59.8175,10.815802,,,1,,2,,,700
1179,NSR:StopPlace:4854,,Finstad,,59.71241800000001,10.831453,,,1,,2,,,700
1180,NSR:StopPlace:3523,,Ånesrud,,60.195988,11.011209,,,1,,2,,,700
1181,NSR:StopPlace:4857,,Eikeliveien,,59.713640000000005,10.835848,,,1,,2,,,700
1182,NSR:StopPlace:3526,,Nygårdstoppen,,60.191547,11.019531,,,1,,2,,,700
1183,NSR:StopPlace:3525,,Høymyrfjellet,,59.782276,10.46942,,,1,,2,,,700
1184,NSR:StopPlace:4859,,Ski stasjon vest,,59.718709999999994,10.832285,,,1,,2,,,700
1185,NSR:StopPlace:3528,,Høyås,,59.81946,10.814067999999999,,,1,,2,,,700
1186,NSR:StopPlace:3527,,Torpstubben nedre,,59.7876,10.473707000000001,,,1,,2,,,700
1187,NSR:StopPlace:3529,,Nannestad sykehjem,,60.221874,11.020571,,,1,,2,,,700
1188,NSR:StopPlace:14928,,Åros sentrum,,59.70533399999999,10.512564,,,1,,2,,,700
1189,NSR:StopPlace:14923,,Åros samfunnshus,,59.709763,10.506183,,,1,,2,,,700
1190,NSR:StopPlace:4860,,Bondal,,60.239222999999996,11.190616,,,1,,2,,,700
1191,NSR:StopPlace:3530,,Torpstubben øvre,,59.785778,10.470285,,,1,,2,,,700
1192,NSR:StopPlace:4861,,Kjærstadsletta,,60.105509999999995,11.050626,,,1,,2,,,700
1193,NSR:StopPlace:4864,,Kråkstad plantesenter,,59.678864000000004,10.862167,,,1,,2,,,700
1194,NSR:StopPlace:3533,,Solbråtan stasjon,,59.800865,10.804793,,,1,,2,,,700
1195,NSR:StopPlace:4863,,Korsmo,,60.101772,11.050154,,,1,,2,,,700
1196,NSR:StopPlace:3513,,H. Stordalens vei,,59.783714,10.447014,,,1,,2,,,700
1197,NSR:StopPlace:4844,,Vasshagan,,59.733856,10.897614,,,1,,2,,,700
1198,NSR:StopPlace:4843,,Hellerudhaugen,,60.11805699999999,10.852675,,,1,,2,,,700
1199,NSR:StopPlace:3512,,Bygdehuset,,60.214825,11.006572,,,1,,2,,,700
1200,NSR:StopPlace:3515,,Gautes vei,,59.808212,10.816923,,,1,,2,,,700
1201,NSR:StopPlace:3514,,Nannestad meieri,,60.209866000000005,10.99877,,,1,,2,,,700
1202,NSR:StopPlace:4845,,Bjørtomthagen,,60.212340000000005,11.163619,,,1,,2,,,700
1203,NSR:StopPlace:4848,,Dalskrysset,,60.00603,10.947369,,,1,,2,,,700
1204,NSR:StopPlace:3517,,Alderspensjonatet,,60.20429,10.999141,,,1,,2,,,700
1205,NSR:StopPlace:3516,,Forsøksgården,,59.783386,10.452753999999999,,,1,,2,,,700
1206,NSR:StopPlace:4847,,Stokstad,,59.734066000000006,10.907110000000001,,,1,,2,,,700
1207,NSR:StopPlace:3519,,Rustadgrenda,,59.78174,10.466999000000001,,,1,,2,,,700
1208,NSR:StopPlace:3518,,Huldrefaret,,59.811040000000006,10.817160000000001,,,1,,2,,,700
1209,NSR:StopPlace:4849,,Bjørnebråten,,59.738342,10.93534,,,1,,2,,,700
1210,NSR:StopPlace:14911,,Sundbykrysset,,59.714473999999996,10.49364,,,1,,2,,,700
1211,NSR:StopPlace:14916,,Åros fabrikker,,59.711383999999995,10.50031,,,1,,2,,,700
1212,NSR:StopPlace:4851,,Tingelstad,,60.008926,10.954642999999999,,,1,,2,,,700
1213,NSR:StopPlace:3520,,Kjos,,60.198875,11.00538,,,1,,2,,,700
1214,NSR:StopPlace:4850,,Myrhus,,60.10459,11.194146,,,1,,2,,,700
1215,NSR:StopPlace:3522,,Torpveien,,59.781254000000004,10.458829,,,1,,2,,,700
1216,NSR:StopPlace:4853,,Lønsvoll,,60.01283000000001,10.966569999999999,,,1,,2,,,700
1217,NSR:StopPlace:4852,,Finstad hageby,,59.711174,10.824036999999999,,,1,,2,,,700
1218,NSR:StopPlace:3521,,Tårnlia,,59.814409999999995,10.817372,,,1,,2,,,700
1219,NSR:StopPlace:3546,,Taraldrudveien,,59.796284,10.820025,,,1,,2,,,700
1220,NSR:StopPlace:4877,,Krogvold,,60.080868,11.036389,,,1,,2,,,700
1221,NSR:StopPlace:4876,,Dyrerud,,59.6645,10.872337,,,1,,2,,,700
1222,NSR:StopPlace:3545,,Korsmo,,59.933384,11.396921,,,1,,2,,,700
1223,NSR:StopPlace:4879,,Skansen,,59.662890000000004,10.888276,,,1,,2,,,700
1224,NSR:StopPlace:4878,,Neskrysset,,59.648125,10.891291,,,1,,2,,,700
1225,NSR:StopPlace:3547,,Holter kirke,,60.145019999999995,11.047898,,,1,,2,,,700
1226,NSR:StopPlace:14906,,Hov,,59.719673,10.493437,,,1,,2,,,700
1227,NSR:StopPlace:14901,,Nordli,,59.722412,10.503207000000002,,,1,,2,,,700
1228,NSR:StopPlace:4880,,Askjordet,,60.074980000000004,11.032642,,,1,,2,,,700
1229,NSR:StopPlace:4882,,Rabben,,59.80732,10.881452000000001,,,1,,2,,,700
1230,NSR:StopPlace:3551,,Fosser,,59.819942000000005,11.486164,,,1,,2,,,700
1231,NSR:StopPlace:4881,,Borgenveien,,60.097588,11.213396000000001,,,1,,2,,,700
1232,NSR:StopPlace:3550,,Fløysbonn,,59.799690000000005,10.819848,,,1,,2,,,700
1233,NSR:StopPlace:4884,,Saga,,59.80223,10.8815,,,1,,2,,,700
1234,NSR:StopPlace:3553,,Rognebærlia,,59.788628,10.816765,,,1,,2,,,700
1235,NSR:StopPlace:4883,,Bråtasletta,,60.045643000000005,11.052624,,,1,,2,,,700
1236,NSR:StopPlace:3552,,Leirbekken,,60.194545999999995,11.016696000000001,,,1,,2,,,700
1237,NSR:StopPlace:4886,,Fjelly,,60.035435,11.047825999999999,,,1,,2,,,700
1238,NSR:StopPlace:3555,,Nordmokorset,,60.253567000000004,11.100499000000001,,,1,,2,,,700
1239,NSR:StopPlace:3554,,Fosser gård,,59.820988,11.499647,,,1,,2,,,700
1240,NSR:StopPlace:4885,,Borgen idrettsplass,,60.096687,11.220365,,,1,,2,,,700
1241,NSR:StopPlace:4866,,Tori,,60.10169200000001,11.059989,,,1,,2,,,700
1242,NSR:StopPlace:3534,,Torpfjellet,,59.786632999999995,10.475791000000001,,,1,,2,,,700
1243,NSR:StopPlace:4865,,Risebro,,60.23753000000001,11.171057000000001,,,1,,2,,,700
1244,NSR:StopPlace:4868,,Bjastad,,59.67624,10.873128,,,1,,2,,,700
1245,NSR:StopPlace:3537,,HV-huset,,59.795067,10.805133,,,1,,2,,,700
1246,NSR:StopPlace:3536,,Bjerkåsmarka,,59.790172999999996,10.487153,,,1,,2,,,700
1247,NSR:StopPlace:3539,,Lomsnes,,59.920204000000005,11.386334,,,1,,2,,,700
1248,NSR:StopPlace:4869,,Reinlendersnippen,,60.10409,11.207963000000001,,,1,,2,,,700
1249,NSR:StopPlace:3538,,Møllerstad,,60.223312,11.084379,,,1,,2,,,700
1250,NSR:StopPlace:4871,,Holt,,59.64930699999999,10.876246,,,1,,2,,,700
1251,NSR:StopPlace:3540,,Sofiemyråsen,,59.79351,10.811233,,,1,,2,,,700
1252,NSR:StopPlace:4870,,Heni,,60.098682,11.047677,,,1,,2,,,700
1253,NSR:StopPlace:4873,,Glenneveien,,59.66969,10.872177,,,1,,2,,,700
1254,NSR:StopPlace:3542,,Ekeberg,,59.93116800000001,11.384322000000001,,,1,,2,,,700
1255,NSR:StopPlace:4872,,Kankedalen,,60.097159999999995,11.03909,,,1,,2,,,700
1256,NSR:StopPlace:3544,,Gunhildrud,,60.22594,11.052261999999999,,,1,,2,,,700
1257,NSR:StopPlace:4875,,Hellen bru,,60.089569999999995,11.04075,,,1,,2,,,700
1258,NSR:StopPlace:4874,,Skomakersvingen,,60.10199,11.210424,,,1,,2,,,700
1259,NSR:StopPlace:3543,,Granholtet,,59.79255,10.818307,,,1,,2,,,700
1260,NSR:StopPlace:4091,,Sørumsand stasjon,,59.986053000000005,11.241617999999999,,,1,,2,,,700
1261,NSR:StopPlace:4090,,Kjørbo,,59.888290000000005,10.525306,,,1,,2,,,700
1262,NSR:StopPlace:4093,,Bingsfoss ungdomsskole,,59.987415000000006,11.250616,,,1,,2,,,700
1263,NSR:StopPlace:4092,,Konvallia,,59.883667,10.510912,,,1,,2,,,700
1264,NSR:StopPlace:4095,,Kjørbokollen,,59.886826,10.519189,,,1,,2,,,700
1265,NSR:StopPlace:4094,,Nationaltheatret,i Frederiks gate,59.91591999999999,10.733509,,,1,,2,,,700
1266,NSR:StopPlace:4097,,Sandvika storsenter,i Johan Grauers gate,59.89078000000001,10.51648,,,1,,2,,,700
1267,NSR:StopPlace:4096,,Festiviteten,,59.98685,11.248927,,,1,,2,,,700
1268,NSR:StopPlace:4098,,Heggedalsveien,,59.98684,11.257014999999999,,,1,,2,,,700
1269,NSR:StopPlace:14895,,Landik,,59.722457999999996,10.507699,,,1,,2,,,700
1270,NSR:StopPlace:14889,,Båtstø,,59.7223,10.512886,,,1,,2,,,700
1271,NSR:StopPlace:14883,,Høvikskogen,,59.727985,10.511425,,,1,,2,,,700
1272,NSR:StopPlace:14870,,Svaberg,,59.748516,10.511563,,,1,,2,,,700
1273,NSR:StopPlace:14877,,Ramton,,59.743584,10.509635000000001,,,1,,2,,,700
1274,NSR:StopPlace:4910,,Bru,,59.778983999999994,10.910639999999999,,,1,,2,,,700
1275,NSR:StopPlace:4912,,Gravhaugen,,60.151093,11.137061,,,1,,2,,,700
1276,NSR:StopPlace:4911,,Veståsen skole,,60.0841,10.999302,,,1,,2,,,700
1277,NSR:StopPlace:4914,,Langseth,,59.773514,10.914464,,,1,,2,,,700
1278,NSR:StopPlace:4913,,Grønlund,,60.075171999999995,11.004621,,,1,,2,,,700
1279,NSR:StopPlace:4916,,Haugsletta,,60.15061,11.144573,,,1,,2,,,700
1280,NSR:StopPlace:4915,,Kniplia,,60.070004000000004,11.013677000000001,,,1,,2,,,700
1281,NSR:StopPlace:4918,,Fjellgrinna,,60.070240000000005,11.021078999999999,,,1,,2,,,700
1282,NSR:StopPlace:4917,,Karlsrud,,59.768448,10.917651,,,1,,2,,,700
1283,NSR:StopPlace:4919,,Vellumstad,,59.765609999999995,10.923311,,,1,,2,,,700
1284,NSR:StopPlace:14863,,Torskeberget,,59.75354399999999,10.512334,,,1,,2,,,700
1285,NSR:StopPlace:4901,,Måltrostveien,,59.790946999999996,10.873552,,,1,,2,,,700
1286,NSR:StopPlace:4900,,Veiberggata,,60.141697,11.17225,,,1,,2,,,700
1287,NSR:StopPlace:4903,,Kullebunn,,59.785625,10.896749,,,1,,2,,,700
1288,NSR:StopPlace:4905,,Nordløkka nord,,59.78311,10.90156,,,1,,2,,,700
1289,NSR:StopPlace:4904,,Orvegen,,60.079285,11.018578999999999,,,1,,2,,,700
1290,NSR:StopPlace:4907,,Kulsrudgutua,,60.077477,11.02187,,,1,,2,,,700
1291,NSR:StopPlace:4906,,Kverndalen,,60.148956000000005,11.150922,,,1,,2,,,700
1292,NSR:StopPlace:4909,,Bjørklundveien,,60.075,11.025986,,,1,,2,,,700
1293,NSR:StopPlace:4908,,Nordløkka,,59.781369999999995,10.906193,,,1,,2,,,700
1294,NSR:StopPlace:15375,,Rokkestad,,59.629364,10.485916,,,1,,2,,,700
1295,NSR:StopPlace:4019,,Henie Onstad seniorsenter,,59.89176,10.55766,,,1,,2,,,700
1296,NSR:StopPlace:5349,,Kjærnes,,59.74746999999999,10.731664,,,1,,2,,,700
1297,NSR:StopPlace:4018,,Kinnerslund,,59.74428,11.490597,,,1,,2,,,700
1298,NSR:StopPlace:15372,,Steinerskolen Hurum,,59.63231700000001,10.495151,,,1,,2,,,700
1299,NSR:StopPlace:15379,,Østernveien,,59.627590000000005,10.481116,,,1,,2,,,700
1300,NSR:StopPlace:59756,,Vinsnes,i Engaveien,59.942955000000005,11.123073,,,1,,2,,,700
1301,NSR:StopPlace:6681,,Freidigveien,,59.86583,10.809289999999999,,,1,,2,,,700
1302,NSR:StopPlace:6682,,Smia,,60.213733999999995,11.51562,,,1,,2,,,700
1303,NSR:StopPlace:4020,,Evenby,,59.718109999999996,11.508102000000001,,,1,,2,,,700
1304,NSR:StopPlace:6680,,Nordstrandhallen,,59.864180000000005,10.809317,,,1,,2,,,700
1305,NSR:StopPlace:5350,,Postterminalen vest,,59.940754000000005,10.942307000000001,,,1,,2,,,700
1306,NSR:StopPlace:5353,,Georg Stangs vei,,59.933569999999996,10.939608,,,1,,2,,,700
1307,NSR:StopPlace:6685,,Sæter,i Nordstrandveien,59.860817000000004,10.801771,,,1,,2,,,700
1308,NSR:StopPlace:4022,,Bærum rådhus,i Sandviksveien,59.889846999999996,10.52782,,,1,,2,,,700
1309,NSR:StopPlace:5352,,Kjellveien,,59.74345,10.740223,,,1,,2,,,700
1310,NSR:StopPlace:6686,,Solstad,,60.209534,11.521848,,,1,,2,,,700
1311,NSR:StopPlace:5355,,Snorres vei,,59.93011,10.944794,,,1,,2,,,700
1312,NSR:StopPlace:4024,,Dronningens gate,,59.910526000000004,10.74699,,,1,,2,,,900
1313,NSR:StopPlace:6683,,Bakkerudveien,,59.869137,10.807851,,,1,,2,,,700
1314,NSR:StopPlace:6684,,Sæter,,59.861378,10.79867,,,1,,2,,,900
1315,NSR:StopPlace:4023,,Fjellheim bru,,59.720535,11.48204,,,1,,2,,,700
1316,NSR:StopPlace:5354,,Ringneskrysset,,59.75639,10.781908999999999,,,1,,2,,,700
